{"version": 0.6, "generator": "Overpass API 0.7.62.8 e802775f", "osm3s": {"timestamp_osm_base": "2026-01-07T02:41:15Z", "copyright": "The data included in this document is from www.openstreetmap.org. The data is made available under ODbL."}, "elements": [{"type": "node", "id": 15262026, "lat": 51.5181558, "lon": -0.1698786}, {"type": "node", "id": 15262028, "lat": 51.5164813, "lon": -0.1698266, "tags": {"addr:city": "London", "addr:housenumber": "30", "addr:postcode": "W2 1JQ", "addr:street": "Southwick Street", "ale": "yes", "amenity": "pub", "brand": "Hall & Woodhouse", "brand:wikidata": "Q5642555", "brewery": "yes", "check_date": "2025-12-16", "contact:facebook": "The-Monkey-Puzzle-219528061409967", "contact:instagram": "monkeypuzzlepub", "diet:vegetarian": "yes", "email": "gary@themonkeypuzzlepub.co.uk", "fhrs:id": "413057", "food": "yes", "indoor_seating": "yes", "level": "0", "name": "The Monkey Puzzle", "opening_hours": "Mo-Sa 12:00-23:30; Su 12:00-22:30", "operator": "Hall & Woodhouse", "outdoor_seating": "yes", "payment:credit_cards": "yes", "payment:debit_cards": "yes", "payment:mastercard": "yes", "payment:visa": "yes", "phone": "+44 20 7723 0143", "real_fire": "no", "smoking": "outside", "source": "survey", "toilets": "yes", "toilets:access": "customers", "website": "https://themonkeypuzzlepub.co.uk/", "wheelchair": "limited"}}, {"type": "node", "id": 18235090, "lat": 51.4628591, "lon": -0.2266975, "tags": {"addr:city": "London", "addr:housenumber": "289", "addr:postcode": "SW15 6SP", "addr:street": "Upper Richmond Road", "amenity": "pub", "fhrs:id": "1782259", "name": "The Arab Boy", "operator": "Greene King", "source:addr": "FHRS Open Data"}}, {"type": "node", "id": 20821133, "lat": 51.5004234, "lon": -0.1777428, "tags": {"amenity": "pub", "name": "The Union Bar", "opening_hours": "\"by appointment\""}}, {"type": "node", "id": 20973312, "lat": 51.4691887, "lon": -0.2100687, "tags": {"addr:city": "London", "addr:housename": "Larrik", "addr:housenumber": "425", "addr:postcode": "SW6 4RN", "addr:street": "New King's Road", "amenity": "pub", "dog": "yes", "fhrs:id": "896680", "name": "Kings Arms", "operator": "Wadworth", "source:addr": "FHRS Open Data", "website": "https://www.kingsarms-fulham.co.uk/", "wheelchair": "limited"}}, {"type": "node", "id": 20973316, "lat": 51.4727261, "lon": -0.1811598, "tags": {"addr:city": "London", "addr:housename": "Riverside Tower", "addr:postcode": "SW6 2SU", "addr:street": "The Boulevard", "addr:unit": "2", "amenity": "pub", "fhrs:id": "346109", "name": "The Waterside", "outdoor_seating": "yes", "source:addr": "FHRS Open Data", "wheelchair": "yes"}}, {"type": "node", "id": 21310453, "lat": 51.4862884, "lon": -0.1217135}, {"type": "node", "id": 21593231, "lat": 51.5149566, "lon": -0.1134203}, {"type": "node", "id": 21593232, "lat": 51.5153316, "lon": -0.1117428, "tags": {"addr:city": "London", "addr:country": "GB", "addr:housenumber": "95", "addr:postcode": "WC2A 1DT", "addr:street": "Chancery Lane", "amenity": "pub", "check_date": "2023-03-25", "fhrs:id": "1619261", "food": "yes", "name": "The Last Judgement", "start_date": "2023-05-03", "was:name": "The Knights Templar", "was:wikidata": "Q88965904", "wheelchair": "yes", "wikidata": "Q88965904"}}, {"type": "node", "id": 21593236, "lat": 51.5172349, "lon": -0.1192033, "tags": {"addr:city": "London", "addr:country": "GB", "addr:housenumber": "12", "addr:postcode": "WC2A 3HP", "addr:street": "Gate Street", "amenity": "pub", "check_date": "2023-04-18", "contact:email": "info@theshiptavern.co.uk", "contact:phone": "+44 20 7405 1992", "diet:vegetarian": "yes", "fhrs:id": "423859", "fhrs:local_authority_id": "13830", "food": "yes", "indoor_seating": "yes", "name": "Ship Tavern", "outdoor_seating": "no", "real_ale": "yes", "smoking": "no", "wikidata": "Q7497944", "wikipedia": "en:Ship Tavern, Holborn"}}, {"type": "node", "id": 21665928, "lat": 51.5137016, "lon": -0.1394579}, {"type": "node", "id": 21685496, "lat": 51.5163219, "lon": -0.1017651}, {"type": "node", "id": 21686579, "lat": 51.5154029, "lon": -0.1043348, "tags": {"addr:city": "London", "addr:housenumber": "17", "addr:postcode": "EC4A 4AB", "addr:street": "Farringdon Street", "amenity": "pub", "fhrs:id": "1097476", "name": "White Haus", "operator": "Stonegate", "operator:wikidata": "Q7619176", "source:addr": "FHRS Open Data", "website": "https://www.thewhitehaus.co.uk/", "wheelchair": "yes"}}, {"type": "node", "id": 25306553, "lat": 51.4952674, "lon": -0.1378618}, {"type": "node", "id": 25307015, "lat": 51.4923919, "lon": -0.1395984}, {"type": "node", "id": 25471087, "lat": 51.5128467, "lon": -0.1212167, "tags": {"addr:city": "London", "addr:housenumber": "39", "addr:street": "Bow Street", "amenity": "pub", "brand": "Young's", "brand:wikidata": "Q8057802", "brand:wikipedia": "en:Young's", "check_date": "2025-11-26", "name": "Marquess of Anglesey", "operator": "Young's", "outdoor_seating": "roof", "website": "https://www.themarquess.co.uk/", "wheelchair": "no"}}, {"type": "node", "id": 25472799, "lat": 51.5263136, "lon": -0.1114121}, {"type": "node", "id": 25473538, "lat": 51.509731, "lon": -0.0785318, "tags": {"addr:city": "London", "addr:housenumber": "15", "addr:postcode": "EC3N 4AA", "addr:street": "Trinity Square", "amenity": "pub", "brand": "Wetherspoon", "brand:wikidata": "Q6109362", "check_date": "2025-06-20", "dog": "no", "fhrs:id": "294245", "foot": "yes", "name": "The Liberty Bounds", "operator": "JD Weatherspoon", "toilets": "yes", "toilets:access": "customers", "website": "https://www.jdwetherspoon.com/pubs/all-pubs/england/london/the-liberty-bounds-tower-of-london", "website:menu": "https://order.jdwetherspoon.com/venue/jdw/550/menus", "wikidata": "Q88965892"}}, {"type": "node", "id": 25475187, "lat": 51.5114165, "lon": -0.0776978, "tags": {"addr:city": "London", "addr:housenumber": "48", "addr:postcode": "EC3N 2AP", "addr:street": "Crutched Friars", "amenity": "pub", "contact:phone": "+44 207 702 1628", "diet:vegan": "yes", "diet:vegetarian": "yes", "fhrs:authority": "City of London Corporation", "fhrs:id": "294974", "fhrs:local_authority_id": "PI/000019691", "name": "The Cheshire Cheese", "opening_hours": "Mo-Fr 11:00-23:00; Sa 12:00-22:00; Su 12:00-20:00", "outdoor_seating": "no", "source:addr": "FHRS Open Data", "website": "https://www.greatukpubs.co.uk/cheshire-cheese-tower-hill", "wheelchair": "yes"}}, {"type": "node", "id": 25475743, "lat": 51.5231454, "lon": -0.1190101}, {"type": "node", "id": 25475914, "lat": 51.5210917, "lon": -0.1228519, "tags": {"amenity": "pub", "brand": "Greene King", "brand:wikidata": "Q5564162", "check_date": "2025-09-10", "indoor_seating": "yes", "name": "The Swan", "outdoor_seating": "yes", "toilets": "yes", "toilets:access": "customers", "website": "https://www.greeneking.co.uk/pubs/greater-london/swan"}}, {"type": "node", "id": 25495429, "lat": 51.5233926, "lon": -0.10817}, {"type": "node", "id": 25496621, "lat": 51.5142977, "lon": -0.1072267}, {"type": "node", "id": 25496840, "lat": 51.5167141, "lon": -0.1103638, "tags": {"addr:city": "London", "addr:housenumber": "26", "addr:postcode": "EC4A 1JS", "addr:street": "Furnival Street", "amenity": "pub", "contact:email": "hello@26furnivalstreet.com", "name": "26 Furnival Street", "old_name": "The Castle", "phone": "+44 20 3301 7555", "website": "https://www.26furnivalstreet.com/"}}, {"type": "node", "id": 25497831, "lat": 51.5239824, "lon": -0.1156647}, {"type": "node", "id": 25502496, "lat": 51.4864142, "lon": -0.121759}, {"type": "node", "id": 25503596, "lat": 51.5197242, "lon": -0.1060506}, {"type": "node", "id": 25503622, "lat": 51.5197332, "lon": -0.106338}, {"type": "node", "id": 25504104, "lat": 51.5183773, "lon": -0.107433}, {"type": "node", "id": 25505570, "lat": 51.518716, "lon": -0.1358605}, {"type": "node", "id": 25510381, "lat": 51.4994616, "lon": -0.1139642, "tags": {"addr:city": "London", "addr:housenumber": "133-135", "addr:postcode": "SE1 7HR", "addr:street": "Westminster Bridge Road", "amenity": "pub", "check_date": "2025-08-23", "check_date:opening_hours": "2025-08-27", "contact:facebook": "CrownAndCushionLdn", "contact:twitter": "CrownCushionLdn", "email": "crownandcushionpub@gmail.com", "fhrs:authority": "Lambeth", "fhrs:id": "606768", "name": "Crown & Cushion", "opening_hours": "Mo-Sa 11:00-23:00; Su 11:00-22:30", "phone": "+44 20 7803 0573", "website": "https://www.thecrownandcushion-london.foodanddrinksites.co.uk/", "wheelchair": "no"}}, {"type": "node", "id": 25534172, "lat": 51.5383682, "lon": -0.1911536}, {"type": "node", "id": 25597628, "lat": 51.5347892, "lon": -0.1072883, "tags": {"addr:city": "London", "addr:housenumber": "57", "addr:postcode": "N1 0RJ", "addr:street": "Liverpool Road", "amenity": "pub", "fhrs:id": "416973", "indoor_seating": "yes", "name": "The Angelic", "outdoor_seating": "yes", "source:addr": "FHRS Open Data"}}, {"type": "node", "id": 25746185, "lat": 51.5123895, "lon": -0.1131849, "tags": {"addr:city": "London", "addr:postcode": "WC2R 3LD", "amenity": "pub", "fhrs:confidence_management": "10", "fhrs:hygiene": "10", "fhrs:id": "412472", "fhrs:local_authority_id": "00842/0005/0/000", "fhrs:rating": "3", "fhrs:structural": "10", "food": "yes", "name": "The Cheshire Cheese", "phone": "+44 20 7836 2347", "real_ale": "yes", "smoking": "no", "toilets": "yes", "toilets:access": "customers", "wheelchair": "yes", "wikidata": "Q27087707"}}, {"type": "node", "id": 25778570, "lat": 51.5369705, "lon": -0.1920297}, {"type": "node", "id": 25823329, "lat": 51.5395423, "lon": -0.1422626}, {"type": "node", "id": 25879299, "lat": 51.5206598, "lon": -0.0980972}, {"type": "node", "id": 26425138, "lat": 51.5258156, "lon": -0.0996475}, {"type": "node", "id": 26609946, "lat": 51.5127605, "lon": -0.0376228}, {"type": "node", "id": 26610585, "lat": 51.5377753, "lon": -0.144383}, {"type": "node", "id": 26610587, "lat": 51.5394566, "lon": -0.1446078, "tags": {"addr:city": "London", "addr:housenumber": "30", "addr:postcode": "NW1 7HB", "addr:street": "Inverness Street", "amenity": "pub", "check_date": "2024-04-26", "fhrs:id": "1492504", "historic": "monument", "name": "The Good Mixer", "source:addr": "FHRS Open Data"}}, {"type": "node", "id": 26610590, "lat": 51.5405479, "lon": -0.1443341, "tags": {"addr:city": "London", "addr:housenumber": "265", "addr:postcode": "NW1 7BU", "addr:street": "Camden High Street", "amenity": "pub", "contact:facebook": "oxfordarms", "contact:instagram": "explore/locations/227378938", "contact:phone": "+44 20 7267 4945", "contact:twitter": "oxfordarms", "contact:website": "https://oxfordarmscamden.co.uk", "fhrs:id": "423942", "internet_access": "wlan", "name": "The Oxford Arms", "opening_hours": "Fr-Sa 12:00-02:00; Su-Th 12:00-01:00", "source:addr": "FHRS Open Data", "toilets": "yes", "toilets:access": "customers", "wheelchair": "limited"}}, {"type": "node", "id": 26671973, "lat": 51.5112678, "lon": -0.1313549}, {"type": "node", "id": 26699548, "lat": 51.5134466, "lon": -0.1297345}, {"type": "node", "id": 26699550, "lat": 51.5135259, "lon": -0.1294734}, {"type": "node", "id": 26699558, "lat": 51.5165109, "lon": -0.1307587, "tags": {"amenity": "pub", "brand": "Nicholson's", "brand:wikidata": "Q113130666", "check_date": "2024-09-10", "food": "yes", "indoor_seating": "yes", "name": "The Flying Horse", "old_name": "The Tottenham", "opening_hours": "Mo-Sa 11:00-23:00; Su 12:00-22:30", "outdoor_seating": "no", "real_ale": "yes", "website": "https://www.nicholsonspubs.co.uk/restaurants/london/theflyinghorseoxfordstreetlondon", "wikidata": "Q16707773"}}, {"type": "node", "id": 26816171, "lat": 51.5212227, "lon": -0.1018479}, {"type": "node", "id": 26819164, "lat": 51.5160907, "lon": -0.1877793}, {"type": "node", "id": 26845550, "lat": 51.5138365, "lon": -0.1350605}, {"type": "node", "id": 26845554, "lat": 51.5140425, "lon": -0.1342915}, {"type": "node", "id": 26845556, "lat": 51.5123402, "lon": -0.1330222}, {"type": "node", "id": 26846366, "lat": 51.511823, "lon": -0.1281127}, {"type": "node", "id": 26848690, "lat": 51.5168406, "lon": -0.1196894}, {"type": "node", "id": 26866988, "lat": 51.5149215, "lon": -0.1351856}, {"type": "node", "id": 26866989, "lat": 51.5148695, "lon": -0.137356}, {"type": "node", "id": 26866993, "lat": 51.5128697, "lon": -0.1321966}, {"type": "node", "id": 27012806, "lat": 51.5432201, "lon": -0.1033499}, {"type": "node", "id": 27017235, "lat": 51.5234117, "lon": -0.1618602, "tags": {"addr:housenumber": "21", "addr:street": "Balcombe Street", "amenity": "pub", "check_date": "2025-04-28", "name": "Sir John Balcombe", "toilets": "yes", "toilets:access": "customers"}}, {"type": "node", "id": 27431704, "lat": 51.5279744, "lon": -0.0199013}, {"type": "node", "id": 27512718, "lat": 51.4776729, "lon": -0.1833426, "tags": {"addr:city": "London", "addr:housenumber": "114", "addr:postcode": "SW10 0RJ", "addr:street": "Lots Road", "amenity": "pub", "contact:facebook": "https://www.facebook.com/lotsroadpub/", "contact:instagram": "lotsroadpub", "contact:twitter": "lotsroadpub", "fhrs:id": "333732", "internet_access": "wlan", "internet_access:fee": "no", "name": "Lots Road", "opening_hours": "Mo-Sa 12:00-23:00; Su 12:00-22:00", "phone": "+44 20 7352 6645", "website": "https://lotsroadchelsea.co.uk/", "wheelchair": "yes"}}, {"type": "node", "id": 27718642, "lat": 51.4984423, "lon": -0.155855, "tags": {"addr:city": "London", "addr:housenumber": "6", "addr:postcode": "SW1X 8HT", "addr:street": "Belgrave Mews West", "amenity": "pub", "brand": "Fuller's", "brand:wikidata": "Q5253950", "fhrs:confidence_management": "0", "fhrs:hygiene": "0", "fhrs:id": "427688", "fhrs:local_authority_id": "00010/0006/0/000", "fhrs:rating": "5", "fhrs:structural": "5", "name": "The Star Tavern", "opening_hours": "Mo-Fr 11:00-23:00; Sa 12:00-23:00; Su 12:00-22:30", "operator": "Fuller's", "real_ale": "yes", "source:addr": "FSA Food Hygiene Ratings Database", "source:postcode": "FSA Food Hygiene Ratings Database", "website": "https://www.star-tavern-belgravia.co.uk/", "wheelchair": "no", "wikidata": "Q17021189"}}, {"type": "node", "id": 28792603, "lat": 51.5201482, "lon": -0.0562856}, {"type": "node", "id": 28792627, "lat": 51.5199538, "lon": -0.0569901}, {"type": "node", "id": 29039088, "lat": 51.5212273, "lon": -0.1225308, "tags": {"addr:city": "London", "addr:postcode": "WC1N 3AR", "amenity": "pub", "indoor_seating": "yes", "name": "The Queen's Larder", "outdoor_seating": "yes", "smoking": "no", "source:addr:postcode": "code-point_open", "wheelchair": "limited", "wikidata": "Q26432040"}}, {"type": "node", "id": 30078475, "lat": 51.512275, "lon": -0.0845236}, {"type": "node", "id": 30585304, "lat": 51.5126423, "lon": -0.187786, "tags": {"amenity": "pub", "food": "yes", "name": "The Bayswater Arms", "operator": "Taylor Walker", "real_ale": "4 (some/most from Greene King?)"}}, {"type": "node", "id": 30591865, "lat": 51.5116511, "lon": -0.1829843}, {"type": "node", "id": 30591874, "lat": 51.5123419, "lon": -0.1783335}, {"type": "node", "id": 30592674, "lat": 51.5095361, "lon": -0.1975022, "tags": {"addr:city": "London", "addr:housenumber": "11", "addr:street": "Pembridge Road", "ale": "yes", "amenity": "pub", "floor": "0", "food": "yes", "name": "Prince Albert", "real_ale": "yes", "toilets": "yes", "toilets:access": "customers", "toilets:wheelchair": "yes", "website": "https://www.the-prince-albert.co.uk/", "wheelchair": "yes"}}, {"type": "node", "id": 31314237, "lat": 51.5145372, "lon": -0.1560695}, {"type": "node", "id": 32921752, "lat": 51.5132284, "lon": -0.1130521}, {"type": "node", "id": 34563543, "lat": 51.4902525, "lon": -0.2400394}, {"type": "node", "id": 34563544, "lat": 51.4901468, "lon": -0.2418575}, {"type": "node", "id": 46714849, "lat": 51.537057, "lon": -0.0884773, "tags": {"addr:city": "London", "addr:housenumber": "55", "addr:postcode": "N1 3DS", "addr:street": "Baring Street", "amenity": "pub", "name": "The Baring Arms", "outdoor_seating": "yes", "smoking": "outside", "source": "survey", "toilets": "yes", "toilets:access": "customers"}}, {"type": "node", "id": 48202180, "lat": 51.5375265, "lon": -0.0609995}, {"type": "node", "id": 48735709, "lat": 51.5283892, "lon": -0.0709992}, {"type": "node", "id": 48751543, "lat": 51.5270992, "lon": -0.0606405}, {"type": "node", "id": 48928571, "lat": 51.5142872, "lon": -0.0531347}, {"type": "node", "id": 48928595, "lat": 51.5190934, "lon": -0.0589373, "tags": {"addr:city": "London", "addr:housenumber": "176", "addr:postcode": "E1 1BJ", "addr:street": "Whitechapel Road", "amenity": "pub", "fhrs:id": "42234", "fhrs:name": "LHT Urban Bar", "internet_access": "wlan", "name": "London Hospital Tavern", "payment:american_express": "no", "payment:cash": "yes", "payment:mastercard": "yes", "payment:visa": "yes", "payment:visa_debit": "yes", "source:addr": "FHRS Open Data", "toilets": "yes", "toilets:access": "customers", "toilets:wheelchair": "no"}}, {"type": "node", "id": 49300405, "lat": 51.4693971, "lon": -0.2104963, "tags": {"addr:city": "London", "addr:housenumber": "90", "addr:postcode": "SW6 3LF", "addr:street": "Fulham High Street", "amenity": "pub", "fhrs:id": "344964", "name": "The Temperance", "operator": "Stonegate", "operator:wikidata": "Q7619176", "source:addr": "FHRS Open Data", "website": "https://www.crafted-social.co.uk/temperance-fulham", "wikidata": "Q15979548", "wikipedia": "en:Temperance Billiard Hall, Fulham"}}, {"type": "node", "id": 49311908, "lat": 51.5239797, "lon": -0.1585799, "tags": {"addr:housenumber": "245-247", "addr:street": "Baker Street", "amenity": "pub", "brewery": "various", "check_date": "2025-01-22", "indoor_seating": "yes", "microbrewery": "no", "name": "The Volunteer", "outdoor_seating": "yes", "smoking": "outside", "website": "https://www.thevolunteernw1.co.uk/", "wheelchair": "limited", "wikidata": "Q26639765"}}, {"type": "node", "id": 49314952, "lat": 51.54181, "lon": -0.1359896, "tags": {"addr:city": "London", "addr:housenumber": "1", "addr:postcode": "NW1 0SS", "addr:street": "Randolph Street", "amenity": "pub", "name": "The Colonel Fawcett", "website": "https://thecolonelfawcett.co.uk/"}}, {"type": "node", "id": 49319602, "lat": 51.5218219, "lon": -0.1337724, "tags": {"addr:city": "London", "addr:housenumber": "36", "addr:postcode": "WC1E 7HJ", "addr:street": "Torrington Place", "amenity": "pub", "brand": "Greene King", "brand:wikidata": "Q5564162", "brewery": "yes", "check_date": "2025-11-27", "fhrs:id": "426480", "food": "yes", "indoor_seating": "yes", "level": "0", "name": "The Marlborough Arms", "outdoor_seating": "yes", "payment:contactless": "yes", "payment:credit_cards": "yes", "payment:debit_cards": "yes", "payment:mastercard": "yes", "payment:visa": "yes", "smoking": "outside", "source": "survey", "source:addr": "FHRS Open Data", "toilets": "yes", "toilets:wheelchair": "limited", "website": "https://www.greeneking.co.uk/pubs/greater-london/marlborough-arms", "wheelchair": "limited"}}, {"type": "node", "id": 49479269, "lat": 51.5295479, "lon": -0.0816713}, {"type": "node", "id": 49481347, "lat": 51.5376171, "lon": -0.0869376}, {"type": "node", "id": 50918706, "lat": 51.5441516, "lon": -0.0445636}, {"type": "node", "id": 50944782, "lat": 51.5453242, "lon": -0.0415251}, {"type": "node", "id": 52715709, "lat": 51.5487604, "lon": -0.0792072}, {"type": "node", "id": 52755412, "lat": 51.5401086, "lon": -0.0744743, "tags": {"addr:city": "London", "addr:housenumber": "260", "addr:postcode": "E8 4EP", "addr:street": "Haggerston Road", "amenity": "pub", "fhrs:id": "469457", "name": "The Duke of Wellington"}}, {"type": "node", "id": 52813523, "lat": 51.5457619, "lon": -0.0699202}, {"type": "node", "id": 53428908, "lat": 51.5450633, "lon": -0.0682093}, {"type": "node", "id": 53456920, "lat": 51.545395, "lon": -0.0633662}, {"type": "node", "id": 56279901, "lat": 51.4976273, "lon": -0.1354554}, {"type": "node", "id": 57207420, "lat": 51.5463554, "lon": -0.0552809}, {"type": "node", "id": 57215756, "lat": 51.5398105, "lon": -0.0561425}, {"type": "node", "id": 57215759, "lat": 51.5387009, "lon": -0.057158}, {"type": "node", "id": 57217554, "lat": 51.5334919, "lon": -0.0574386}, {"type": "node", "id": 59136547, "lat": 51.4933632, "lon": -0.1927658}, {"type": "node", "id": 59169435, "lat": 51.4895785, "lon": -0.1904313, "tags": {"addr:city": "London", "addr:housenumber": "326", "addr:postcode": "SW5 9BQ", "addr:street": "Old Brompton Road", "amenity": "pub", "brand": "O'Neill's", "brand:wikidata": "Q7071905", "name": "The Bolton", "opening_hours": "Mo-Th 12:00-23:00; Fr 12:00-00:00; Sa 10:00-00:00; Su 10:00-23:00", "operator": "O'Neills", "toilets": "yes", "toilets:access": "customers", "website": "https://www.theboltonearlscourt.co.uk/"}}, {"type": "node", "id": 59764289, "lat": 51.5292042, "lon": -0.0837149}, {"type": "node", "id": 96003939, "lat": 51.5286273, "lon": -0.0514036}, {"type": "node", "id": 96004423, "lat": 51.5289298, "lon": -0.0521186}, {"type": "node", "id": 96083725, "lat": 51.4930282, "lon": -0.1383271}, {"type": "node", "id": 108035448, "lat": 51.4787002, "lon": -0.1288063, "tags": {"addr:city": "London", "addr:housenumber": "257", "addr:postcode": "SW8 2NB", "addr:street": "Wandsworth Road", "amenity": "pub", "brewery": "yes", "fhrs:id": "925742", "food": "yes", "name": "The Nottingham Castle", "payment:cash": "yes", "payment:contactless": "yes", "payment:credit_cards": "yes", "short_name": "The Nott"}}, {"type": "node", "id": 116097320, "lat": 51.5149285, "lon": -0.0778751, "tags": {"addr:city": "London", "addr:housenumber": "133", "addr:postcode": "EC3A 7BX", "addr:street": "Houndsditch", "amenity": "pub", "fhrs:id": "294939", "indoor_seating": "yes", "name": "The Alice", "operator": "Stonegate", "operator:wikidata": "Q7619176", "outdoor_seating": "yes", "website": "https://www.crafted-social.co.uk/alice-houndsditch-london", "wheelchair": "no"}}, {"type": "node", "id": 116097730, "lat": 51.5148281, "lon": -0.0781193, "tags": {"addr:city": "London", "addr:housenumber": "31", "addr:postcode": "EC3A 7DB", "addr:street": "Houndsditch", "amenity": "pub", "check_date": "2025-08-05", "fhrs:id": "1105123", "name": "The Lion Houndsditch", "wheelchair": "limited"}}, {"type": "node", "id": 128329850, "lat": 51.4935531, "lon": -0.1418267, "tags": {"amenity": "pub", "name": "The Camel", "toilets": "yes", "toilets:access": "customers"}}, {"type": "node", "id": 128330377, "lat": 51.4912985, "lon": -0.1391678}, {"type": "node", "id": 130730585, "lat": 51.4905364, "lon": -0.2349334}, {"type": "node", "id": 132960560, "lat": 51.4687716, "lon": -0.1270502, "tags": {"addr:housenumber": "348", "addr:street": "Clapham Road", "amenity": "pub", "check_date": "2025-07-04", "name": "The Phoenix", "toilets": "yes", "toilets:access": "customers"}}, {"type": "node", "id": 135787210, "lat": 51.5189744, "lon": -0.1413392}, {"type": "node", "id": 140614391, "lat": 51.5032998, "lon": -0.2243109}, {"type": "node", "id": 140614668, "lat": 51.50523, "lon": -0.2244913}, {"type": "node", "id": 148756771, "lat": 51.5227931, "lon": -0.0469464}, {"type": "node", "id": 148782410, "lat": 51.4889866, "lon": -0.1467405, "tags": {"addr:city": "London", "addr:housenumber": "1a", "addr:postcode": "SW1V 4LD", "addr:street": "Sutherland Street", "air_conditioning": "no", "amenity": "pub", "fhrs:id": "1048553", "name": "The White Ferry", "opening_hours": "Mo-Su,PH 00:00-00:00", "wikidata": "Q27081607"}}, {"type": "node", "id": 160548974, "lat": 51.5279082, "lon": -0.0309841, "tags": {"addr:city": "London", "addr:housenumber": "43", "addr:postcode": "E3 5AA", "addr:street": "Morgan Street", "amenity": "pub", "contact:facebook": "180637488650821", "contact:instagram": "themorganarms", "contact:phone": "+44 20 8980 6389", "contact:twitter": "TheMorganArms", "fhrs:id": "149505", "food": "yes", "name": "The Morgan Arms", "old_name": "Playwrights", "opening_hours": "Mo-Sa 12:00-23:00; Su 12:00-22:30", "real_ale": "yes", "toilets": "yes", "toilets:access": "customers", "website": "https://www.morganarmsbow.com/", "website:menu": "https://www.morganarmsbow.com/menus"}}, {"type": "node", "id": 166967411, "lat": 51.5425434, "lon": -0.1548897, "tags": {"addr:housenumber": "150", "addr:street": "Gloucester Avenue", "amenity": "pub", "check_date": "2024-12-15", "name": "The Pembroke Castle"}}, {"type": "node", "id": 169140424, "lat": 51.4500913, "lon": -0.1743309, "tags": {"addr:city": "London", "addr:housenumber": "345", "addr:postcode": "SW18 3SH", "addr:street": "Trinity Road", "amenity": "pub", "brand": "Young's", "brand:wikidata": "Q8057802", "fhrs:id": "1572311", "name": "The County Arms", "operator": "Youngs", "source:addr": "FHRS Open Data", "toilets": "yes", "toilets:access": "customers"}}, {"type": "node", "id": 169384510, "lat": 51.4986377, "lon": -0.139521, "tags": {"addr:city": "London", "addr:housenumber": "25", "addr:postcode": "SW1E 6PR", "addr:street": "Wilfred Street", "amenity": "pub", "brand": "Greene King", "brand:wikidata": "Q5564162", "fhrs:id": "428047", "name": "The Pineapple", "source:addr": "FHRS Open Data", "website": "https://www.greeneking.co.uk/pubs/greater-london/colonies"}}, {"type": "node", "id": 169440015, "lat": 51.4985497, "lon": -0.1402518, "tags": {"addr:city": "London", "addr:housenumber": "39-41", "addr:postcode": "SW1E 5HN", "addr:street": "Palace Street", "amenity": "pub", "fhrs:id": "428051", "name": "Cask & Glass", "source:addr": "FHRS Open Data", "toilets": "yes", "toilets:access": "customers"}}, {"type": "node", "id": 169447694, "lat": 51.4966341, "lon": -0.1425701}, {"type": "node", "id": 173393132, "lat": 51.5228463, "lon": -0.2014599}, {"type": "node", "id": 173393189, "lat": 51.5154507, "lon": -0.1974618}, {"type": "node", "id": 175684023, "lat": 51.5460243, "lon": -0.1019468, "tags": {"amenity": "pub", "check_date": "2024-12-12", "indoor_seating": "yes", "name": "Hen and Chickens theatre & bar", "outdoor_seating": "yes", "wikidata": "Q5712940", "wikipedia": "en:Hen and Chickens Theatre"}}, {"type": "node", "id": 179852302, "lat": 51.5126644, "lon": -0.0402174}, {"type": "node", "id": 192399971, "lat": 51.5509523, "lon": -0.1405102}, {"type": "node", "id": 192399976, "lat": 51.5529728, "lon": -0.1396355, "tags": {"addr:city": "London", "addr:housenumber": "51", "addr:postcode": "NW5 2NX", "addr:street": "Leverton Street", "amenity": "pub", "contact:facebook": "ThePineapplePub", "contact:instagram": "thepineapplepub", "contact:twitter": "ThePineapplePub", "cuisine": "thai", "email": "manager@thepineapplepubnw5.com", "name": "The Pineapple", "opening_hours": "Mo-Th 12:00-23:00; Fr-Sa 12:00-00:00; Su 12:00-22:30", "outdoor_seating": "yes", "phone": "+44 20 7284 4631", "real_ale": "3 or 4 beers", "website": "https://www.thepineapplepubnw5.com/", "wheelchair": "no", "wikidata": "Q17361862", "wikipedia": "en:The Pineapple, Kentish Town"}}, {"type": "node", "id": 203646313, "lat": 51.5138034, "lon": -0.0388976}, {"type": "node", "id": 203646626, "lat": 51.513543, "lon": -0.0398701}, {"type": "node", "id": 203665429, "lat": 51.5141331, "lon": -0.0366195}, {"type": "node", "id": 206180988, "lat": 51.5283527, "lon": -0.1738724}, {"type": "node", "id": 232336969, "lat": 51.4566511, "lon": -0.1921614}, {"type": "node", "id": 232336975, "lat": 51.5132212, "lon": -0.1366194}, {"type": "node", "id": 232337015, "lat": 51.4906972, "lon": -0.1833309, "tags": {"entrance": "yes", "source": "photograph"}}, {"type": "node", "id": 243509077, "lat": 51.5294799, "lon": -0.0693116}, {"type": "node", "id": 243707561, "lat": 51.4794939, "lon": -0.0078754}, {"type": "node", "id": 243707562, "lat": 51.4794073, "lon": -0.0078012}, {"type": "node", "id": 243712168, "lat": 51.4801465, "lon": -0.0095566}, {"type": "node", "id": 243773259, "lat": 51.4827968, "lon": -0.0083952}, {"type": "node", "id": 245406678, "lat": 51.5330592, "lon": -0.096991}, {"type": "node", "id": 246111569, "lat": 51.4612829, "lon": -0.1382297, "tags": {"amenity": "pub", "check_date": "2024-08-09", "name": "The Alexandra"}}, {"type": "node", "id": 246112013, "lat": 51.4618322, "lon": -0.1376414, "tags": {"addr:city": "London", "addr:housenumber": "1", "addr:postcode": "SW4 7AA", "addr:street": "Clapham Common South Side", "amenity": "pub", "check_date": "2024-08-11", "fhrs:authority": "Lambeth", "fhrs:id": "483915", "fhrs:inspectiondate": "2013-02-15", "fhrs:rating": "5", "name": "Belle Vue", "toilets": "yes", "toilets:access": "customers", "wheelchair": "limited"}}, {"type": "node", "id": 246112767, "lat": 51.4591507, "lon": -0.1348655, "tags": {"amenity": "pub", "note": "no visible name!"}}, {"type": "node", "id": 246115186, "lat": 51.454953, "lon": -0.1395127, "tags": {"addr:city": "London", "addr:housenumber": "67-69", "addr:postcode": "SW4 9JW", "addr:street": "Abbeville Road", "amenity": "pub", "fhrs:authority": "Lambeth", "fhrs:id": "482925", "fhrs:inspectiondate": "2013-02-13", "fhrs:rating": "3", "name": "The Abbeville", "toilets": "yes", "toilets:access": "customers"}}, {"type": "node", "id": 246518021, "lat": 51.5060922, "lon": -0.1267947}, {"type": "node", "id": 246518042, "lat": 51.5067276, "lon": -0.1269618, "tags": {"addr:city": "London", "addr:housenumber": "15", "addr:postcode": "SW1A 2DD", "addr:street": "Craig's Court", "amenity": "pub", "fhrs:id": "412580", "fhrs:local_authority_id": "00881/0015/0/004", "name": "Walkers of Whitehall", "source:postcode": "FSA Food Hygiene Ratings Database"}}, {"type": "node", "id": 246519847, "lat": 51.5084752, "lon": -0.1267238, "tags": {"addr:city": "London", "addr:country": "GB", "addr:housenumber": "7", "addr:postcode": "WC2N 4JF", "addr:street": "Duncannon Street", "amenity": "pub", "contact:facebook": "https://www.facebook.com/HalfwaytoHeaven", "contact:instagram": "https://www.instagram.com/onlyathalfway/", "contact:twitter": "https://twitter.com/onlyathalfway", "email": "halfwaytoheaven.london@stonegatepubs.com", "fhrs:id": "411372", "indoor_seating": "yes", "internet_access": "wlan", "lgbtq": "primary", "name": "Halfway II Heaven", "opening_hours": "Mo-Th 12:00-23:00; Fr, Sa 12:00-01:00; Su 12:00-20:00", "operator": "Stonegate", "operator:wikidata": "Q7619176", "outdoor_seating": "no", "payment:american_express": "yes", "phone": "+44 20 7484 0736", "toilets": "yes", "toilets:access": "customers", "toilets:female": "yes", "toilets:male": "yes", "toilets:unisex": "no", "toilets:wheelchair": "no", "website": "https://www.halfway2heaven.net/london", "wheelchair": "limited", "wikimedia_commons": "File:Halfway II Heaven, Trafalgar Square, WC2 (3614629275).jpg"}}, {"type": "node", "id": 246522172, "lat": 51.5005273, "lon": -0.1297099}, {"type": "node", "id": 247475195, "lat": 51.4926133, "lon": -0.1405216, "tags": {"entrance": "shop"}}, {"type": "node", "id": 247957492, "lat": 51.5061115, "lon": -0.0829214, "tags": {"addr:city": "London", "addr:postcode": "SE1 2HD", "addr:street": "Counter Street", "addr:unit": "Unit 26 Hays Galleria", "alt_name": "The Horniman at Hay's", "amenity": "pub", "brand": "Nicholson's", "brand:wikidata": "Q113130666", "contact:phone": "+44 20 7407 1991", "contact:website": "https://www.nicholsonspubs.co.uk/restaurants/london/thehornimanathayslondonbridge", "fhrs:id": "364252", "name": "The Horniman", "opening_hours": "Mo-Su 11:00-23:00; Th-Sa 11:00-23:30", "outdoor_seating": "yes", "real_cider": "no", "source:addr": "FHRS Open Data", "toilets:wheelchair": "no", "wheelchair": "limited"}}, {"type": "node", "id": 248444184, "lat": 51.525197, "lon": -0.0900377, "tags": {"addr:city": "London", "addr:housename": "Classic House", "addr:housenumber": "174-180", "addr:postcode": "EC1V 9BP", "addr:street": "Old Street", "amenity": "pub", "fhrs:id": "416514", "name": "Sports Bar & Grill", "old_name": "Litten Tree", "source": "local knowledge", "source:addr": "FHRS Open Data"}}, {"type": "node", "id": 248546654, "lat": 51.4954636, "lon": -0.0395511, "tags": {"addr:city": "London", "addr:housenumber": "6", "addr:postcode": "SE16 7PL", "addr:street": "Russell Place", "amenity": "pub", "brand": "Fuller's", "brand:wikidata": "Q5253950", "check_date": "2023-09-10", "fhrs:id": "364236", "name": "The Moby Dick", "operator": "Fuller's", "source:addr": "FHRS Open Data", "toilets": "yes", "toilets:access": "customers", "website": "https://www.mobydickgreenlanddock.co.uk/"}}, {"type": "node", "id": 248915404, "lat": 51.4659566, "lon": -0.1364604}, {"type": "node", "id": 248921516, "lat": 51.4661242, "lon": -0.1421645, "tags": {"amenity": "pub", "created_by": "Potlatch 0.10f", "name": "Traders", "note": "Ale and Dim Sum"}}, {"type": "node", "id": 248921520, "lat": 51.4637043, "lon": -0.14135, "tags": {"addr:city": "London", "addr:housenumber": "2", "addr:postcode": "SW4 0JG", "addr:street": "The Polygon", "amenity": "pub", "check_date": "2024-08-25", "fhrs:authority": "Lambeth", "fhrs:id": "484591", "fhrs:inspectiondate": "2011-11-24", "fhrs:rating": "3", "name": "The Rose and Crown"}}, {"type": "node", "id": 248921522, "lat": 51.4639712, "lon": -0.1409221, "tags": {"addr:city": "London", "addr:housenumber": "47", "addr:postcode": "SW4 0JL", "addr:street": "Old Town", "amenity": "pub", "check_date": "2024-08-25", "fhrs:authority": "Lambeth", "fhrs:id": "484384", "fhrs:inspectiondate": "2013-01-31", "fhrs:rating": "5", "name": "The Sun"}}, {"type": "node", "id": 248921524, "lat": 51.465258, "lon": -0.1410423, "tags": {"amenity": "pub", "name": "The Grafton", "toilets": "yes", "toilets:access": "customers"}}, {"type": "node", "id": 248921525, "lat": 51.4655827, "lon": -0.1410858, "tags": {"addr:city": "London", "addr:housenumber": "87", "addr:postcode": "SW4 0DR", "addr:street": "Rectory Grove", "amenity": "pub", "fhrs:authority": "Lambeth", "fhrs:id": "484413", "fhrs:inspectiondate": "2011-12-16", "fhrs:rating": "4", "name": "The Calf"}}, {"type": "node", "id": 248932665, "lat": 51.4642991, "lon": -0.1353883, "tags": {"addr:city": "London", "addr:housenumber": "128", "addr:postcode": "SW4 6ED", "addr:street": "Clapham Manor Street", "amenity": "pub", "brewery": "yes", "food": "yes", "indoor_seating": "yes", "name": "The Clapham Tap", "old_name": "The Manor Arms", "opening_hours": "Mo-Th 16:00-23:00; Fr 16:00-00:00; Sa 12:00-00:00; Su 12:00-23:00", "outdoor_seating": "yes", "phone": "+44 20 7498 9633", "smoking": "outside", "website": "https://the-clapham-tap.business.site/"}}, {"type": "node", "id": 248932668, "lat": 51.464002, "lon": -0.1368524}, {"type": "node", "id": 248933565, "lat": 51.4645547, "lon": -0.1311338, "tags": {"addr:city": "London", "addr:housenumber": "18", "addr:postcode": "SW4 7UR", "addr:street": "Clapham High Street", "amenity": "pub", "brewery": "various", "check_date": "2024-03-13", "cuisine": "burger;fish_and_chips", "diet:vegetarian": "yes", "fhrs:authority": "Lambeth", "fhrs:id": "483935", "fhrs:inspectiondate": "2013-03-28", "fhrs:rating": "5", "name": "The Railway Tavern", "outdoor_seating": "yes", "payment:american_express": "yes", "payment:cash": "yes", "payment:mastercard": "yes", "payment:visa": "yes", "payment:visa_debit": "yes", "real_fire": "no", "toilets": "yes", "wheelchair": "limited"}}, {"type": "node", "id": 249310455, "lat": 51.5048793, "lon": -0.0573725, "tags": {"addr:city": "London", "addr:housenumber": "97", "addr:postcode": "E1W 2RW", "addr:street": "Wapping Lane", "amenity": "pub", "fhrs:id": "76191", "name": "Dockers Inn", "opening_hours": "Mo-Th 12:00-23:00, Fr,Sa 12:00-01:30, Su 12:00-22:30", "website": "https://dockersinn.co.uk/"}}, {"type": "node", "id": 249672348, "lat": 51.5200974, "lon": -0.1038699}, {"type": "node", "id": 250367687, "lat": 51.5403657, "lon": -0.1355025}, {"type": "node", "id": 251526423, "lat": 51.4427243, "lon": -0.1493607, "tags": {"addr:city": "London", "addr:housenumber": "77", "addr:postcode": "SW12 9HD", "addr:street": "Bedford Hill", "amenity": "pub", "check_date": "2025-07-12", "fhrs:id": "297565", "name": "The Bedford", "source:addr": "FHRS Open Data", "toilets": "yes", "toilets:access": "customers", "wikidata": "Q21008638"}}, {"type": "node", "id": 252535146, "lat": 51.4895126, "lon": -0.2308528}, {"type": "node", "id": 252938134, "lat": 51.5383918, "lon": -0.0990837}, {"type": "node", "id": 253023936, "lat": 51.521426, "lon": -0.1520105}, {"type": "node", "id": 254924499, "lat": 51.5187404, "lon": -0.132015}, {"type": "node", "id": 255467328, "lat": 51.5152398, "lon": -0.1992676}, {"type": "node", "id": 255467418, "lat": 51.5090298, "lon": -0.1950149}, {"type": "node", "id": 255747920, "lat": 51.514735, "lon": -0.1171958}, {"type": "node", "id": 255747926, "lat": 51.5146993, "lon": -0.1171183}, {"type": "node", "id": 255747928, "lat": 51.514596, "lon": -0.11718}, {"type": "node", "id": 255747944, "lat": 51.514611, "lon": -0.1172442}, {"type": "node", "id": 255747947, "lat": 51.5147063, "lon": -0.1168421, "tags": {"addr:city": "London", "addr:housenumber": "31", "addr:postcode": "WC2A 2HF", "addr:street": "Portugal Street", "amenity": "pub", "contact:phone": "+44 20 7955 7743", "contact:website": "http://www.lse.ac.uk/intranet/LSEServices/cateringServices/restaurantsAndCafes/georgeIVPub.aspx", "image": "https://en.wikipedia.org/wiki/File:Lse_george_iv.jpg", "indoor_seating": "yes", "level": "0;1", "loc_name": "The George", "name": "The George IV", "opening_hours": "12:00-24:00", "operator": "London School of Economics and Political Science (LSE)", "outdoor_seating": "yes", "smoking": "outside", "toilets": "yes", "toilets:access": "customers", "toilets:wheelchair": "no", "wheelchair": "limited", "wheelchair:description": "Access through door on Portsmouth Street;no disabled toilet but nearby LSE library's toilet is available"}}, {"type": "node", "id": 257422550, "lat": 51.5179237, "lon": -0.1153983}, {"type": "node", "id": 257464728, "lat": 51.4933656, "lon": -0.2433411, "tags": {"amenity": "pub", "name": "The Hart", "toilets": "yes", "toilets:access": "customers"}}, {"type": "node", "id": 257477426, "lat": 51.4986094, "lon": -0.2352824}, {"type": "node", "id": 257596041, "lat": 51.4925944, "lon": -0.2544909}, {"type": "node", "id": 257937397, "lat": 51.5231854, "lon": -0.138689, "tags": {"addr:city": "London", "addr:housenumber": "72", "addr:postcode": "W1T 5DU", "addr:street": "Grafton Way", "amenity": "pub", "check_date": "2024-11-14", "fhrs:id": "426441", "indoor_seating": "yes", "name": "The Grafton Arms", "outdoor_seating": "yes", "roof_terrace": "yes", "source:addr": "FHRS Open Data", "website": "https://www.graftonarms.co.uk/"}}, {"type": "node", "id": 258158775, "lat": 51.5096598, "lon": -0.1258959}, {"type": "node", "id": 258159327, "lat": 51.5116758, "lon": -0.1256947}, {"type": "node", "id": 259246781, "lat": 51.5157438, "lon": -0.1026086}, {"type": "node", "id": 259247147, "lat": 51.5140192, "lon": -0.102168}, {"type": "node", "id": 259247148, "lat": 51.5141806, "lon": -0.1022136}, {"type": "node", "id": 259248888, "lat": 51.5108908, "lon": -0.0811851, "tags": {"amenity": "pub", "name": "Agenda", "wheelchair": "no"}}, {"type": "node", "id": 259253467, "lat": 51.5110721, "lon": -0.0847581, "tags": {"addr:city": "London", "addr:housenumber": "11", "addr:postcode": "EC3V 0BP", "addr:street": "Talbot Court", "amenity": "pub", "brand": "Nicholson's", "brand:wikidata": "Q113130666", "fhrs:id": "294227", "name": "The Ship", "toilets": "yes", "toilets:access": "customers", "website": "https://www.nicholsonspubs.co.uk/restaurants/london/theshiptalbotcourtlondon", "wheelchair": "limited"}}, {"type": "node", "id": 259774303, "lat": 51.5131349, "lon": -0.1484154, "tags": {"amenity": "pub", "name": "Running Horse", "wikidata": "Q27084619"}}, {"type": "node", "id": 259774404, "lat": 51.5124213, "lon": -0.1422011, "tags": {"addr:housenumber": "6-8", "addr:street": "Mill Street", "amenity": "pub", "name": "The Windmill", "website": "https://www.youngs.co.uk/"}}, {"type": "node", "id": 260091978, "lat": 51.5188332, "lon": -0.1006469}, {"type": "node", "id": 260940215, "lat": 51.4817558, "lon": -0.1257238}, {"type": "node", "id": 261000393, "lat": 51.4748429, "lon": -0.128315, "tags": {"amenity": "pub", "cuisine": "latin_american;tapas", "name": "The Priory Arms", "opening_hours": "Mo-Fr 16:00-23:00; Sa 12:00-23:00; Su 12:00-22:30", "outdoor_seating": "yes"}}, {"type": "node", "id": 261245915, "lat": 51.4713507, "lon": -0.1128611, "tags": {"addr:city": "London", "addr:housenumber": "246", "addr:postcode": "SW9 6AQ", "addr:street": "Brixton Road", "amenity": "pub", "brewery": "yes", "cuisine": "gastropub", "food": "yes", "name": "Crown & Anchor", "opening_hours": "Mo 16:30-23:00; Tu-Th 16:30-24:00; Fr 16:30-25:00; Sa 12:00 - 25:00; Su 12:00-23:00", "operator": "Conway Taverns", "payment:cash": "no", "payment:contactless": "yes", "payment:credit_cards": "yes", "payment:debit_cards": "yes", "smoking": "outside", "website": "https://crownandanchorbrixton.co.uk"}}, {"type": "node", "id": 261310647, "lat": 51.4795759, "lon": -0.1259483, "tags": {"addr:city": "London", "addr:housenumber": "33", "addr:postcode": "SW8 2XA", "addr:street": "Wilcox Road", "alt_name": "Nolan's Freehouse", "amenity": "pub", "check_date": "2025-08-24", "fhrs:authority": "Lambeth", "fhrs:id": "484719", "fhrs:inspectiondate": "2012-10-02", "fhrs:rating": "4", "name": "Nolan's", "toilets": "yes", "toilets:access": "customers"}}, {"type": "node", "id": 261348553, "lat": 51.4781061, "lon": -0.1257229}, {"type": "node", "id": 261348576, "lat": 51.4764537, "lon": -0.1276913, "tags": {"addr:city": "London", "addr:housenumber": "128", "addr:postcode": "SW8 2HJ", "addr:street": "Hartington Road", "alt_name": "The Cav", "amenity": "pub", "cocktails": "yes", "cuisine": "pizza", "diet:vegetarian": "yes", "fhrs:id": "484138", "food": "yes", "indoor_seating": "yes", "level": "0", "live_music": "yes", "name": "The Cavendish Arms", "outdoor_seating": "yes", "real_ale": "no", "toilets": "yes", "toilets:access": "customers", "toilets:menstrual_products": "yes", "website": "https://thecavendisharmsstockwell.co.uk/"}}, {"type": "node", "id": 261817894, "lat": 51.4874221, "lon": -0.013245}, {"type": "node", "id": 262328689, "lat": 51.4772075, "lon": -0.1227341, "tags": {"wheelchair": "limited"}}, {"type": "node", "id": 262702979, "lat": 51.4929603, "lon": -0.252613, "tags": {"addr:city": "London", "addr:housenumber": "122", "addr:postcode": "W4 1PU", "addr:street": "Chiswick High Road", "addr:suburb": "Chiswick", "amenity": "pub", "indoor_seating": "yes", "name": "The Roebuck", "opening_hours": "Su-Th 12:00-23:00; Fr-Sa 12:00-24:00", "outdoor_seating": "yes", "phone": "+44 20 3978 2162", "toilets": "yes", "toilets:access": "customers", "website": "https://www.brunningandprice.co.uk/roebuck/"}}, {"type": "node", "id": 262725495, "lat": 51.5374576, "lon": -0.1454959}, {"type": "node", "id": 264041224, "lat": 51.4891613, "lon": -0.1108437, "tags": {"addr:city": "London", "addr:housenumber": "293", "addr:postcode": "SE11 6BY", "addr:street": "Kennington Road", "amenity": "pub", "check_date": "2024-08-11", "fhrs:id": "483094", "name": "The Dog House", "phone": "+44 20 3893 1239", "toilets": "yes", "toilets:access": "customers", "wheelchair": "no"}}, {"type": "node", "id": 264790279, "lat": 51.4957145, "lon": -0.1038594, "tags": {"addr:city": "London", "addr:housenumber": "51", "addr:street": "St George's Road", "amenity": "pub", "check_date": "2024-12-15", "check_date:opening_hours": "2023-02-12", "contact:facebook": "prince.of.wales.se1", "contact:instagram": "prince.of.wales.se1", "name": "Prince of Wales", "opening_hours:signed": "no"}}, {"type": "node", "id": 264797750, "lat": 51.489311, "lon": -0.1052036, "tags": {"amenity": "pub", "name": "The Mansion House"}}, {"type": "node", "id": 264797790, "lat": 51.4899576, "lon": -0.1081407, "tags": {"amenity": "pub", "name": "The Little Apple"}}, {"type": "node", "id": 264803342, "lat": 51.4886442, "lon": -0.1108233, "tags": {"addr:housenumber": "185", "addr:street": "Kennington Road", "amenity": "pub", "brand": "Shepherd Neame", "brand:wikidata": "Q12002324", "check_date": "2025-09-14", "indoor_seating": "yes", "name": "The Tommyfield", "operator": "Shepherd Neame", "outdoor_seating": "no", "toilets:wheelchair": "no", "wheelchair": "no"}}, {"type": "node", "id": 265106471, "lat": 51.5218954, "lon": -0.1568829}, {"type": "node", "id": 265649310, "lat": 51.5414171, "lon": -0.1533533, "tags": {"amenity": "pub", "created_by": "Potlatch 0.9a", "name": "The Lansdowne"}}, {"type": "node", "id": 265657342, "lat": 51.4857796, "lon": -0.0913804}, {"type": "node", "id": 265662292, "lat": 51.486375, "lon": -0.0843308, "tags": {"amenity": "pub", "name": "The Hour Glass", "tourism": "hotel"}}, {"type": "node", "id": 265664308, "lat": 51.5067525, "lon": -0.0702178, "tags": {"addr:city": "London", "addr:postcode": "E1W 1UH", "addr:street": "Marble Quay", "amenity": "pub", "fhrs:id": "43538", "name": "Dickens Inn", "not:addr:postcode": "E1W 1LB", "opening_hours": "Mo-Su 12:00-23:00", "website": "https://www.dickensinn.co.uk/", "wheelchair": "no", "wheelchair:description": "No lift to top floor restaurant. Lift access to Pizza restaurant not signposted (inaccessible during private events?) WC not checked today."}}, {"type": "node", "id": 266324793, "lat": 51.5041063, "lon": -0.1137203, "tags": {"addr:city": "London", "addr:housenumber": "5", "addr:postcode": "SE1 8SQ", "addr:street": "Mepham Street", "amenity": "pub", "check_date": "2025-06-25", "fhrs:id": "484318", "name": "Hole In the Wall", "payment:cash": "yes", "payment:credit_cards": "yes", "payment:debit_cards": "yes", "toilets": "yes", "toilets:access": "customers", "wheelchair": "no", "wikidata": "Q108464970"}}, {"type": "node", "id": 266560384, "lat": 51.5093933, "lon": -0.0916244, "tags": {"addr:city": "London", "addr:postcode": "EC4R 3TE", "addr:street": "Cousin Lane", "amenity": "pub", "brand": "Fuller's", "brand:wikidata": "Q5253950", "email": "banker@fullers.co.uk", "fhrs:id": "295166", "internet_access": "wlan", "name": "The Banker", "opening_hours": "Mo 11:00-22:00; Tu-We, Fr 11:00-23:00; Th 11:00-17:00; Sa 12:00-20:00", "operator": "Fuller's", "phone": "+44 20 7283 5206", "toilets": "yes", "toilets:access": "customers", "website": "https://www.banker-london.co.uk/"}}, {"type": "node", "id": 266680230, "lat": 51.5139755, "lon": -0.1249853, "tags": {"addr:city": "London", "addr:housenumber": "22", "addr:postcode": "WC2H 9PS", "addr:street": "Neal Street", "amenity": "pub", "fhrs:id": "952263", "name": "The Crown and Anchor", "phone": "+44 20 7836 5649", "real_ale": "yes", "source:addr": "FSA Food Hygiene Rating Scheme open data", "toilets": "yes", "toilets:access": "customers", "wheelchair": "yes", "wikidata": "Q18207855"}}, {"type": "node", "id": 266819646, "lat": 51.4959641, "lon": -0.2205877}, {"type": "node", "id": 266819667, "lat": 51.5002698, "lon": -0.221756, "tags": {"addr:housenumber": "55", "addr:street": "Shepherds Bush Road", "amenity": "pub", "description": "The public house was established in the late 1860's and the original building was modernised in 1897 and 1947. It is thought it was named after the Richmond and Kensington Railway Line which was opened in 1869 and built by the London and South West Railwa", "name": "The Richmond", "outdoor_seating": "yes", "real_ale": "yes", "website": "https://therichmondhammersmith.co.uk/"}}, {"type": "node", "id": 266819686, "lat": 51.4979068, "lon": -0.20744}, {"type": "node", "id": 266819690, "lat": 51.4996804, "lon": -0.2153484}, {"type": "node", "id": 266877019, "lat": 51.4657075, "lon": -0.1260872, "tags": {"amenity": "pub", "name": "The Landor Theatre", "wikidata": "Q6484917", "wikipedia": "en:Landor Theatre"}}, {"type": "node", "id": 267411492, "lat": 51.506496, "lon": -0.0884268}, {"type": "node", "id": 267432002, "lat": 51.501146, "lon": -0.125595, "tags": {"addr:city": "London", "addr:country": "GB", "addr:housenumber": "10", "addr:postcode": "SW1A 2JR", "addr:street": "Bridge Street", "amenity": "pub", "brand": "Hall & Woodhouse", "brand:wikidata": "Q5642555", "brand:wikipedia": "en:Hall & Woodhouse", "check_date": "2024-11-30", "fhrs:confidence_management": "5", "fhrs:hygiene": "0", "fhrs:id": "414499", "fhrs:local_authority_id": "03/00546/COMM", "fhrs:rating": "2", "fhrs:structural": "15", "food": "yes", "indoor_seating": "yes", "name": "St Stephen's Tavern", "outdoor_seating": "yes", "real_ale": "Badger", "source:postcode": "FSA Food Hygiene Ratings Database", "start_date": "1873", "website": "https://www.ststephenstavern.co.uk/", "wheelchair": "limited", "wikidata": "Q27084775"}}, {"type": "node", "id": 267820882, "lat": 51.5402186, "lon": 0.0008199}, {"type": "node", "id": 267820891, "lat": 51.5411573, "lon": 0.0029369, "tags": {"entrance": "main"}}, {"type": "node", "id": 267820906, "lat": 51.5458551, "lon": 0.0043933, "tags": {"entrance": "main", "source": "survey"}}, {"type": "node", "id": 268430691, "lat": 51.5071635, "lon": -0.1075107, "tags": {"addr:city": "London", "addr:floor": "Basement", "addr:housenumber": "52", "addr:postcode": "SE1 9LX", "addr:street": "Stamford Street", "amenity": "pub", "check_date:opening_hours": "2023-03-07", "fhrs:id": "1002664", "indoor_seating": "yes", "name": "The Fountain & Ink", "opening_hours:signed": "no", "outdoor_seating": "yes", "source:addr": "FHRS Open Data", "toilets": "yes", "toilets:access": "customers", "wheelchair": "yes"}}, {"type": "node", "id": 268642671, "lat": 51.5357808, "lon": 0.006917}, {"type": "node", "id": 268642682, "lat": 51.5400316, "lon": 0.0030574, "tags": {"entrance": "yes"}}, {"type": "node", "id": 269236131, "lat": 51.5540951, "lon": -0.0050874}, {"type": "node", "id": 269253652, "lat": 51.542752, "lon": 0.0032106, "tags": {"addr:city": "London", "addr:housename": "The Q Building", "addr:housenumber": "108-110", "addr:postcode": "E15 1NS", "addr:street": "The Grove", "amenity": "pub", "fhrs:id": "641136", "fhrs:local_authority_id": "77640/0108/2/110", "indoor_seating": "yes", "name": "012 Bar & Grill Restaurant", "note": "http://pa.newham.gov.uk/online-applications/licencingDetails.do?activeTab", "opening_hours": "Su-Th 11:00-00:00; Fr,Sa 11:00-01:00", "outdoor_seating": "yes"}}, {"type": "node", "id": 269253654, "lat": 51.5436896, "lon": 0.0039811}, {"type": "node", "id": 269255191, "lat": 51.5424567, "lon": 0.0028343, "tags": {"addr:city": "London", "addr:housenumber": "78-102", "addr:postcode": "E15 1NG", "addr:street": "Broadway", "amenity": "pub", "fhrs:authority": "Newham", "fhrs:id": "1156128", "fhrs:local_authority_id": "62700/0078/2/003", "level": "0", "name": "The Sportsman", "old_name": "The Goose On Broadway", "opening_hours": "Su-Th 09:00-23:30; Fr,Sa 09:00-01:00", "operator": "Stonegate", "operator:wikidata": "Q7619176", "source:addr": "FHRS Open Data", "toilets": "yes", "toilets:access": "customers", "was:fhrs:id": "640866", "website": "https://www.greatukpubs.co.uk/sportsman-stratford", "wheelchair": "limited"}}, {"type": "node", "id": 269859953, "lat": 51.5041075, "lon": -0.0753099, "tags": {"addr:city": "London", "addr:postcode": "SE1 2LN", "addr:street": "Shad Thames", "amenity": "pub", "brewery": "sam_smiths", "name": "Anchor Brewhouse", "wikidata": "Q4752667", "wikipedia": "en:Anchor Brewhouse"}}, {"type": "node", "id": 269866730, "lat": 51.5005923, "lon": -0.0705079, "tags": {"addr:city": "London", "addr:housenumber": "33", "addr:postcode": "SE1 2BP", "addr:street": "Wolseley Street", "amenity": "pub", "fhrs:id": "364248", "indoor_seating": "yes", "name": "The Ship Aground", "outdoor_seating": "yes", "source:addr": "FHRS Open Data"}}, {"type": "node", "id": 269875238, "lat": 51.4950038, "lon": -0.0586649}, {"type": "node", "id": 270124646, "lat": 51.496945, "lon": -0.1322457}, {"type": "node", "id": 270420472, "lat": 51.5051439, "lon": -0.0339857, "tags": {"addr:city": "London", "addr:housenumber": "257", "addr:postcode": "SE16 5EJ", "addr:street": "Rotherhithe Street", "amenity": "pub", "brand": "Fuller's", "brand:wikidata": "Q5253950", "cuisine": "thai", "fhrs:id": "364732", "food": "yes", "name": "The Blacksmiths Arms", "operator": "Fuller's", "real_ale": "yes", "source:addr": "FHRS Open Data", "toilets": "yes", "toilets:access": "customers", "website": "https://www.blacksmithsarmsrotherhithe.co.uk/", "wifi": "no"}}, {"type": "node", "id": 271387709, "lat": 51.491093, "lon": -0.1373223, "tags": {"addr:city": "London", "addr:housenumber": "6", "addr:postcode": "SW1V 2EE", "addr:street": "Charlwood Street", "amenity": "pub", "brewery": "yes", "check_date:opening_hours": "2025-08-25", "craft_keg": "yes", "cuisine": "burger", "fhrs:id": "412122", "food": "yes", "indoor_seating": "yes", "internet_access": "wlan", "name": "Cask", "opening_hours": "Mo-Sa 12:00-23:00; Su 12:00-22:30", "opening_hours:kitchen": "Mo-Fr 12:00-15:00,17:00-22:00; Sa-Su 12:30-21:30", "opening_hours:signed": "no", "outdoor_seating": "yes", "payment:cards": "yes", "real_ale": "yes", "toilets": "yes", "website": "https://www.caskpubandkitchen.com/", "website:menu": "http://www.caskpubandkitchen.com/menu", "wheelchair": "yes"}}, {"type": "node", "id": 271419221, "lat": 51.4980485, "lon": -0.0254214}, {"type": "node", "id": 271420672, "lat": 51.4982236, "lon": -0.0256327}, {"type": "node", "id": 271516102, "lat": 51.4898941, "lon": -0.1353645, "tags": {"addr:city": "London", "addr:housenumber": "85", "addr:postcode": "SW1V 2QA", "addr:street": "Tachbrook Street", "amenity": "pub", "check_date:opening_hours": "2025-08-25", "fhrs:id": "414318", "name": "Pride of Pimlico", "opening_hours": "Mo-Su 11:00-23:00", "opening_hours:signed": "no", "operator": "Stonegate", "operator:wikidata": "Q7619176", "payment:american_express": "yes", "payment:cards": "yes", "payment:cash": "yes", "payment:credit_cards": "yes", "payment:debit_cards": "yes", "payment:mastercard": "yes", "payment:visa": "yes", "sport": "billiards;darts", "website": "https://www.craftunionpubs.com/pride-of-pimlico", "wheelchair": "no"}}, {"type": "node", "id": 271949024, "lat": 51.5096619, "lon": -0.1516936}, {"type": "node", "id": 271949863, "lat": 51.5165073, "lon": -0.1373884, "tags": {"addr:city": "London", "addr:housenumber": "77A", "addr:postcode": "W1T 3QQ", "addr:street": "Wells Street", "amenity": "pub", "check_date": "2025-08-26", "fhrs:id": "427765", "food": "yes", "indoor_seating": "yes", "name": "The Adam & Eve", "old_name": "Ben Crouches Tavern", "outdoor_seating": "yes", "phone": "+44 20 7636 0717", "source:addr": "FHRS Open Data", "toilets": "yes", "toilets:access": "customers", "website": "https://www.theadamandevew1.co.uk/"}}, {"type": "node", "id": 273210307, "lat": 51.4893631, "lon": -0.1285646}, {"type": "node", "id": 273217507, "lat": 51.4899499, "lon": -0.1314326}, {"type": "node", "id": 273509342, "lat": 51.4642947, "lon": -0.1291283, "tags": {"addr:city": "London", "addr:housenumber": "33", "addr:postcode": "SW4 7SQ", "addr:street": "Bedford Road", "amenity": "pub", "fhrs:authority": "Lambeth", "fhrs:id": "482993", "fhrs:inspectiondate": "2011-09-28", "fhrs:rating": "5", "name": "The Falcon"}}, {"type": "node", "id": 273533110, "lat": 51.5013181, "lon": -0.0509211, "tags": {"addr:city": "London", "addr:housenumber": "47", "addr:postcode": "SE16 4JN", "addr:street": "Swan Road", "amenity": "pub", "description": "bright blue", "fhrs:id": "1016895", "indoor_seating": "yes", "name": "The Brunel", "opening_hours": "Mo-Th 12:00-00:00, Fr-Sa 12:00-01:30, Su 12:00-00:00", "opening_hours:signed": "no", "outdoor_seating": "yes", "payment:cash": "yes", "toilets": "yes", "toilets:access": "customers", "wheelchair": "yes"}}, {"type": "node", "id": 273542286, "lat": 51.4638115, "lon": -0.1143893}, {"type": "node", "id": 274268703, "lat": 51.4595646, "lon": -0.1266272, "tags": {"addr:city": "London", "addr:housenumber": "123", "addr:postcode": "SW2 5UA", "addr:street": "Acre Lane", "amenity": "pub", "name": "Hope & Anchor", "opening_hours": "Mo-Th 12:00-23:00; Fr-Sa 12:00-01:00; Su 12:00-22:00", "outdoor_seating": "yes", "toilets": "yes", "toilets:access": "customers", "website": "https://www.hopeandanchorbrixton.co.uk/"}}, {"type": "node", "id": 274343580, "lat": 51.5123, "lon": -0.0156581}, {"type": "node", "id": 275346117, "lat": 51.4541044, "lon": -0.1225889}, {"type": "node", "id": 275452092, "lat": 51.4772459, "lon": -0.0586344, "tags": {"addr:city": "London", "addr:housenumber": "40-42", "addr:postcode": "SE15 2RL", "addr:street": "Asylum Road", "amenity": "pub", "fhrs:id": "364269", "name": "Asylum Travern", "source:addr": "FHRS Open Data", "toilets": "yes", "toilets:access": "customers"}}, {"type": "node", "id": 276369831, "lat": 51.5437242, "lon": -0.1177134, "tags": {"addr:city": "London", "addr:housenumber": "379", "addr:postcode": "N7 9DQ", "addr:street": "Caledonian Road", "amenity": "pub", "fhrs:id": "416585", "name": "Doyles Tavern", "source:addr": "FHRS Open Data", "toilets": "yes", "toilets:access": "customers"}}, {"type": "node", "id": 276918863, "lat": 51.5063345, "lon": -0.2382944}, {"type": "node", "id": 277703362, "lat": 51.5314537, "lon": -0.0940596}, {"type": "node", "id": 277703365, "lat": 51.5285651, "lon": -0.0915107}, {"type": "node", "id": 277906484, "lat": 51.5132004, "lon": -0.0871776, "tags": {"addr:city": "London", "addr:housenumber": "24", "addr:postcode": "EC3V 3ND", "addr:street": "Cornhill", "amenity": "pub", "check_date": "2026-01-04", "fhrs:id": "293810", "image": "https://archive.org/details/cityoflondon2018-11-21/City%20of%20London%202018-11-21/DSCN8602.JPG", "name": "Forge", "old_name": "Abacus", "operator": "Stonegate", "operator:wikidata": "Q7619176", "website": "https://www.forgedinlondon.com/london", "wheelchair": "yes"}}, {"type": "node", "id": 277906871, "lat": 51.5244233, "lon": -0.0801705}, {"type": "node", "id": 277909036, "lat": 51.5148862, "lon": -0.0687963, "tags": {"addr:city": "London", "addr:housenumber": "44", "addr:postcode": "E1 1LN", "addr:street": "Commercial Road", "amenity": "pub", "email": "thecastle44@gmail.com", "fhrs:id": "42495", "indoor_seating": "yes", "live_music": "yes", "name": "The Castle", "opening_hours": "Su-Tu 16:00-24:00, We 16:00-01:00, Th 16:00-01:30, Fr,Sa 16:00-03:00", "outdoor_seating": "no", "website": "http://www.thecastlelondon.com/"}}, {"type": "node", "id": 278291760, "lat": 51.5071618, "lon": -0.0674954, "tags": {"addr:city": "London", "addr:housenumber": "5", "addr:postcode": "E1W 1YW", "addr:street": "Thomas More Square", "amenity": "pub", "fhrs:id": "78918", "level": "0", "name": "The Moretown Belle", "phone": "+44 20 7702 0900", "toilets:wheelchair": "no", "website": "https://www.moretownbelle.co.uk/", "wheelchair": "yes"}}, {"type": "node", "id": 278312956, "lat": 51.5131287, "lon": -0.0566157, "tags": {"addr:city": "London", "addr:housenumber": "39", "addr:postcode": "E1 2PP", "addr:street": "Watney Market", "amenity": "pub", "fhrs:id": "43911", "level": "0", "name": "Thomas Neale"}}, {"type": "node", "id": 279104455, "lat": 51.53537, "lon": -0.0772439}, {"type": "node", "id": 279104460, "lat": 51.5364009, "lon": -0.080804}, {"type": "node", "id": 279391479, "lat": 51.4706805, "lon": -0.112081, "tags": {"addr:city": "London", "addr:housenumber": "261", "addr:postcode": "SW9 6LH", "addr:street": "Brixton Road", "alt_name": "Brixton Jamm", "amenity": "pub", "check_date": "2025-09-16", "name": "Brixton Jamm", "source": "website", "website": "https://brixtonjamm.org/"}}, {"type": "node", "id": 279391483, "lat": 51.4781203, "lon": -0.1034297, "tags": {"amenity": "pub", "check_date": "2025-10-03", "level": "0", "name": "The Golden Goose", "outdoor_seating": "yes", "smoking": "outside"}}, {"type": "node", "id": 279526311, "lat": 51.4575038, "lon": -0.1441572, "tags": {"addr:city": "London", "addr:postcode": "SW4 9DE", "addr:street": "Windmill Drive", "amenity": "pub", "email": "windmillhotel@youngs.co.uk", "fhrs:authority": "Lambeth", "fhrs:id": "483109", "fhrs:inspectiondate": "2010-08-03", "fhrs:rating": "5", "name": "The Windmill", "opening_hours:covid19": "closed", "operator": "Youngs", "outdoor_seating": "yes", "phone": "+44 20 8673 4578", "toilets": "yes", "toilets:access": "customers", "website": "https://www.windmillclapham.co.uk/"}}, {"type": "node", "id": 279857395, "lat": 51.5129735, "lon": 0.0122265}, {"type": "node", "id": 280145696, "lat": 51.5288373, "lon": -0.1262199, "tags": {"addr:city": "London", "addr:housenumber": "73-77", "addr:postcode": "NW1 2QS", "addr:street": "Euston Road", "amenity": "pub", "brand": "O'Neill's", "brand:wikidata": "Q7071905", "check_date": "2024-10-12", "diet:vegetarian": "yes", "food": "yes", "indoor_seating": "yes", "level": "0", "name": "O'Neill's", "opening_hours": "Mo-We 08:00-24:00, Th-Sa 08:00-01:00, Su 09:00-24:00", "outdoor_seating": "yes", "payment:credit_cards": "yes", "payment:debit_cards": "yes", "theme": "irish", "wheelchair": "no"}}, {"type": "node", "id": 280525285, "lat": 51.5221729, "lon": -0.1032382, "tags": {"addr:city": "London", "addr:housename": "Ground and Lower Ground Floors", "addr:housenumber": "2-5", "addr:postcode": "EC1M 4DE", "addr:street": "St John's Square", "addr:suburb": "Islington", "amenity": "pub", "fhrs:id": "735168", "internet_access": "wlan", "name": "Clerkenwell Social", "source:addr": "FHRS Open Data"}}, {"type": "node", "id": 280525286, "lat": 51.5217231, "lon": -0.1040766}, {"type": "node", "id": 280526568, "lat": 51.5298847, "lon": -0.1062863}, {"type": "node", "id": 280835217, "lat": 51.4859699, "lon": -0.1729707, "tags": {"addr:housenumber": "298", "addr:street": "Old Church Street", "amenity": "pub", "name": "The Cadogan Arms"}}, {"type": "node", "id": 280835439, "lat": 51.4842633, "lon": -0.1722964, "tags": {"addr:city": "London", "addr:postcode": "SW3 5BS", "addr:street": "Old Church Street", "amenity": "pub", "contact:instagram": "thepigsear_", "name": "The Pig's Ear", "opening_hours": "Tu-Sa 12:00-23:00; Mo 17:00-23:00; Su 12:00-22:00", "toilets": "yes", "toilets:access": "customers", "website": "https://www.pigsearpub.com/", "wheelchair": "limited"}}, {"type": "node", "id": 281423452, "lat": 51.5099724, "lon": -0.1922069}, {"type": "node", "id": 281427243, "lat": 51.5486737, "lon": -0.0408086, "tags": {"entrance": "main"}}, {"type": "node", "id": 281455014, "lat": 51.5284133, "lon": -0.1195557, "tags": {"addr:city": "London", "addr:housenumber": "245a", "addr:postcode": "WC1X 8QY", "addr:street": "Gray's Inn Road", "amenity": "pub", "brand": "Greene King", "brand:wikidata": "Q5564162", "brand:wikipedia": "en:Greene King", "check_date": "2025-05-22", "indoor_seating": "yes", "name": "The Lucas Arms", "operator": "Greene King", "outdoor_seating": "yes", "website": "https://www.greeneking.co.uk/pubs/greater-london/lucas-arms"}}, {"type": "node", "id": 281455015, "lat": 51.5308521, "lon": -0.1200367}, {"type": "node", "id": 283218340, "lat": 51.4953472, "lon": -0.0835069, "tags": {"addr:city": "London", "addr:housenumber": "40", "addr:postcode": "SE1 4TR", "addr:street": "Tower Bridge Road", "amenity": "pub", "fhrs:id": "364170", "name": "The George", "opening_hours": "Mo-Th 11:00-23:30; Fr,Sa 11:00-24:00; Su 12:00-23:00", "operator": "Stonegate", "operator:wikidata": "Q7619176", "source:addr": "FHRS Open Data", "website": "https://www.craftunionpubs.com/george-southwark", "wheelchair": "yes"}}, {"type": "node", "id": 283299664, "lat": 51.5343726, "lon": -0.1168906}, {"type": "node", "id": 283300167, "lat": 51.5408557, "lon": -0.1171367}, {"type": "node", "id": 283441960, "lat": 51.4856508, "lon": -0.0342933}, {"type": "node", "id": 283614125, "lat": 51.4469022, "lon": -0.1490137, "tags": {"addr:city": "London", "addr:housename": "The Devonshire", "addr:housenumber": "39", "addr:postcode": "SW12 9AN", "addr:street": "Balham High Road", "amenity": "pub", "fhrs:id": "1579085", "food": "yes", "garden": "yes", "name": "The Devonshire", "source:addr": "FHRS Open Data", "toilets": "yes", "toilets:access": "customers", "wheelchair": "yes"}}, {"type": "node", "id": 286719841, "lat": 51.5132372, "lon": -0.1248695, "tags": {"amenity": "pub", "created_by": "Potlatch 0.10b", "name": "The Langley", "note": "under ground"}}, {"type": "node", "id": 287240464, "lat": 51.4958251, "lon": -0.0828758, "tags": {"amenity": "pub", "name": "The Hartley"}}, {"type": "node", "id": 287243496, "lat": 51.4899499, "lon": -0.08567, "tags": {"amenity": "pub", "created_by": "Potlatch 0.10b", "name": "Huntsman and Hounds", "toilets:wheelchair": "no", "wheelchair": "limited"}}, {"type": "node", "id": 287326420, "lat": 51.5399205, "lon": -0.1368796}, {"type": "node", "id": 287326425, "lat": 51.5415402, "lon": -0.1383177, "tags": {"addr:city": "London", "addr:housenumber": "102-106", "addr:postcode": "NW1 9EA", "addr:street": "Camden Road", "amenity": "pub", "brand": "BrewDog", "brand:wikidata": "Q911367", "fhrs:id": "1006866", "fhrs:local_authority_id": "193340", "name": "Camden Road Arms", "old_name": "The Grand Union", "old_name:en": "Draft House", "operator": "Brewdog", "source:addr": "FHRS Open Data", "toilets": "yes", "toilets:access": "customers"}}, {"type": "node", "id": 287553265, "lat": 51.4981992, "lon": -0.1324675, "tags": {"addr:city": "London", "addr:country": "GB", "addr:housenumber": "1", "addr:postcode": "SW1P 2LU", "addr:street": "Abbey Orchard Street", "amenity": "pub", "brewery": "yes", "cuisine": "german", "fhrs:id": "1156885", "indoor_seating": "yes", "level": "-1", "name": "Munich Cricket Club", "outdoor_seating": "no"}}, {"type": "node", "id": 287612242, "lat": 51.4607139, "lon": -0.1671587, "tags": {"addr:city": "London", "addr:country": "GB", "addr:housenumber": "2", "addr:postcode": "SW11 1NT", "addr:street": "Northcote Road", "amenity": "pub", "fhrs:id": "1571840", "name": "The Northcote", "source:addr": "FHRS Open Data", "website": "http://www.geronimo-inns.co.uk/thenorthcote/", "wheelchair": "no"}}, {"type": "node", "id": 287612487, "lat": 51.4609207, "lon": -0.1664373, "tags": {"addr:city": "London", "addr:country": "GB", "addr:housename": "Public House", "addr:housenumber": "66B", "addr:postcode": "SW11 1EQ", "addr:street": "Battersea Rise", "amenity": "pub", "check_date": "2023-09-06", "fhrs:id": "1579084", "level": "0", "name": "The Goat", "payment:contactless": "yes", "payment:credit_cards": "yes", "payment:debit_cards": "yes", "payment:mastercard": "yes", "payment:visa": "yes", "source:addr": "FHRS Open Data", "toilets": "yes", "toilets:access": "customers", "wheelchair": "no"}}, {"type": "node", "id": 287749130, "lat": 51.5036385, "lon": -0.111312, "tags": {"addr:city": "London", "addr:housename": "The Wellington", "addr:housenumber": "81 - 83", "addr:postcode": "SE1 8UD", "addr:street": "Waterloo Road", "amenity": "pub", "brand": "Fuller's", "brand:wikidata": "Q5253950", "check_date": "2024-05-03", "fhrs:id": "484686", "name": "The Wellington", "source:addr": "FHRS Open Data", "website": "https://www.wellingtonhotelwaterloo.co.uk/"}}, {"type": "node", "id": 288026491, "lat": 51.4976084, "lon": -0.0663648}, {"type": "node", "id": 288026530, "lat": 51.4954065, "lon": -0.065873, "tags": {"addr:city": "London", "addr:housenumber": "72", "addr:postcode": "SE16 4QZ", "addr:street": "St James's Road", "amenity": "pub", "name": "St James Tavern"}}, {"type": "node", "id": 288031611, "lat": 51.4924899, "lon": -0.063351}, {"type": "node", "id": 288045106, "lat": 51.5129646, "lon": -0.0935949}, {"type": "node", "id": 288045288, "lat": 51.5142543, "lon": -0.0742015, "tags": {"addr:city": "London", "addr:housenumber": "47", "addr:postcode": "EC3N 1AL", "addr:street": "Aldgate High Street", "amenity": "pub", "brand": "Nicholson's", "brand:wikidata": "Q113130666", "check_date": "2025-04-25", "contact:facebook": "nicholsonspubs", "contact:instagram": "nicholsonspubs", "cuisine": "local", "fhrs:id": "293613", "indoor_seating": "yes", "name": "Hoop and Grapes", "opening_hours": "Su-Fr 12:00-23:30; Sa 11:00-18:00", "outdoor_seating": "yes", "payment:american_express": "yes", "payment:cash": "yes", "phone": "+44 20 7481 4583", "toilets": "yes", "toilets:access": "customers", "website": "https://www.nicholsonspubs.co.uk/restaurants/london/thehoopandgrapesaldgatelondon", "wikidata": "Q16707742"}}, {"type": "node", "id": 288163676, "lat": 51.5234746, "lon": -0.0900459}, {"type": "node", "id": 288170087, "lat": 51.5301253, "lon": -0.0800851, "tags": {"addr:city": "London", "addr:housenumber": "70", "addr:postcode": "N1 6LP", "addr:street": "Hoxton Street", "amenity": "pub", "contact:instagram": "themacbethhoxton", "fhrs:id": "738791", "food": "yes", "name": "The Macbeth", "reservation": "yes", "toilets": "yes", "toilets:access": "customers"}}, {"type": "node", "id": 289075156, "lat": 51.5224839, "lon": -0.0928541, "tags": {"addr:city": "London", "addr:housenumber": "121", "addr:postcode": "EC1Y 8JH", "addr:street": "Whitecross Street", "amenity": "pub", "fhrs:id": "417729", "name": "Two Brewers", "wheelchair": "limited"}}, {"type": "node", "id": 289829475, "lat": 51.4630642, "lon": -0.1348176, "tags": {"addr:city": "London", "addr:housenumber": "114", "addr:postcode": "SW4 7UJ", "addr:street": "Clapham High Street", "amenity": "pub", "check_date": "2024-08-11", "contact:email": "twobrewers.london@stonegatepubs.com", "contact:phone": "+44 20 7819 9539", "fhrs:authority": "Lambeth", "fhrs:id": "483951", "fhrs:inspectiondate": "2009-05-22", "fhrs:rating": "5", "lgbtq": "primary", "name": "Two Brewers", "opening_hours": "17:00-02:00; Th 17:00-03:00; Fr,Sa 17:00-04:00", "operator": "Stonegate", "operator:wikidata": "Q7619176", "website": "https://www.the2brewers.com/london"}}, {"type": "node", "id": 289830212, "lat": 51.5132258, "lon": -0.0867502, "tags": {"addr:city": "London", "addr:housenumber": "28", "addr:postcode": "EC3V 3ND", "addr:street": "Cornhill", "amenity": "pub", "brand": "Pitcher & Piano", "brand:wikidata": "Q65930663", "brand:wikipedia": "en:Pitcher & Piano", "check_date": "2026-01-04", "cuisine": "british", "fhrs:id": "293811", "name": "Pitcher and Piano", "source:addr": "FHRS Open Data", "toilets": "yes", "toilets:access": "customers", "toilets:wheelchair": "yes", "wheelchair": "limited"}}, {"type": "node", "id": 289996602, "lat": 51.5062952, "lon": -0.146163, "tags": {"addr:housenumber": "2", "addr:street": "Shepherd Market", "amenity": "pub", "brand": "Greene King", "brand:wikidata": "Q5564162", "check_date": "2024-10-20", "name": "The Kings Arms", "phone": "+44 20 7629 0416", "website": "https://www.greeneking-pubs.co.uk/pubs/greater-london/kings-arms-mayfair"}}, {"type": "node", "id": 290017300, "lat": 51.4492346, "lon": -0.1176409, "tags": {"air_conditioning": "no", "amenity": "pub", "brewery": "yes", "check_date": "2023-10-08", "internet_access": "wlan", "internet_access:fee": "no", "microbrewery": "no", "name": "Elm Park Tavern", "outdoor_seating": "yes", "payment:cash": "yes", "payment:contactless": "yes", "payment:credit_cards": "yes", "payment:debit_cards": "yes", "payment:mastercard": "yes", "payment:visa": "yes", "real_fire": "no", "smoking": "outside", "sport": "soccer;rugby_union;rugby", "toilets": "yes", "toilets:wheelchair": "no", "wheelchair": "limited"}}, {"type": "node", "id": 290094174, "lat": 51.4949733, "lon": -0.130815}, {"type": "node", "id": 290621074, "lat": 51.4788399, "lon": -0.1927249, "tags": {"amenity": "pub", "name": "Tommy Tucker", "source": "TMJ-Mobile_0.6.1", "toilets": "yes", "toilets:access": "customers"}}, {"type": "node", "id": 290621086, "lat": 51.4924915, "lon": -0.1514301, "tags": {"amenity": "pub", "name": "The Belgravia", "source": "TMJ-Mobile_0.6.1"}}, {"type": "node", "id": 291070454, "lat": 51.4847592, "lon": -0.003846}, {"type": "node", "id": 291669795, "lat": 51.4994686, "lon": -0.1317635}, {"type": "node", "id": 291671992, "lat": 51.4437389, "lon": -0.1528177, "tags": {"addr:city": "London", "addr:postcode": "SW12 9BP", "addr:street": "Balham High Road", "amenity": "pub", "contact:facebook": "cyclistbalham", "contact:instagram": "cyclistbalham", "contact:twitter": "cyclistbalham", "internet_access": "wlan", "name": "The Cyclist", "opening_hours": "Su-Tu 12:00-23:00; We-Fr 12:00-00:00; Sa 10:00-13:00", "phone": "+44 20 8066 2070", "website": "https://www.urbanpubsandbars.com/venues/the-cyclist", "website:menu": "https://www.urbanpubsandbars.com/venues/the-cyclist#menus", "wheelchair": "yes"}}, {"type": "node", "id": 291746120, "lat": 51.5189603, "lon": -0.0860074, "tags": {"addr:city": "London", "addr:housenumber": "2-12", "addr:postcode": "EC2M 2TE", "addr:street": "Wilson Street", "addr:unit": "Retail Unit", "amenity": "pub", "cuisine": "british", "fhrs:id": "294288", "food": "yes", "name": "Bangers", "real_ale": "yes", "toilets": "yes", "toilets:access": "customers"}}, {"type": "node", "id": 291753929, "lat": 51.517516, "lon": -0.0832222}, {"type": "node", "id": 291754220, "lat": 51.5189552, "lon": -0.0836417, "tags": {"addr:city": "London", "addr:housenumber": "35", "addr:parentstreet": "Broadgate", "addr:postcode": "EC2M 2QS", "addr:street": "Broadgate Circle", "amenity": "pub", "check_date": "2023-07-15", "fhrs:id": "758636", "name": "The Botanist", "payment:american_express": "yes", "payment:mastercard": "yes", "payment:visa": "yes", "wheelchair": "limited"}}, {"type": "node", "id": 291951098, "lat": 51.5216823, "lon": -0.0871913}, {"type": "node", "id": 291953084, "lat": 51.5241672, "lon": -0.0934981, "tags": {"addr:city": "London", "addr:housenumber": "142-146", "addr:postcode": "EC1Y 8QJ", "addr:street": "Whitecross Street", "amenity": "pub", "fhrs:id": "416353", "name": "The Whitecross Tap", "operator": "Stonegate", "operator:wikidata": "Q7619176", "source:addr": "FHRS Open Data", "website": "https://www.crafted-social.co.uk/whitecross-tap-old-street"}}, {"type": "node", "id": 291977904, "lat": 51.4547784, "lon": -0.1199229, "tags": {"addr:city": "London", "addr:housenumber": "94", "addr:postcode": "SW2 1QN", "addr:street": "Brixton Hill", "amenity": "pub", "check_date": "2025-07-17", "fhrs:authority": "Lambeth", "fhrs:id": "483224", "fhrs:inspectiondate": "2011-11-04", "fhrs:rating": "5", "name": "White Horse", "toilets": "yes", "toilets:access": "customers", "website": "https://www.whitehorsebrixton.com/", "wifi": "no"}}, {"type": "node", "id": 291981188, "lat": 51.5430239, "lon": -0.1130904, "tags": {"addr:city": "London", "addr:housenumber": "158", "addr:postcode": "N1 1DF", "addr:street": "Hemingford Road", "addr:suburb": "Islington", "amenity": "pub", "check_date": "2023-07-23", "name": "Hemingford Arms", "opening_hours": "Mo-Sa 11:00-23:00; Su 12:00-22:30", "phone": "+44 20 7607 3303", "source:addr": "FHRS Open Data", "website": "https://www.hemingfordarms.com/"}}, {"type": "node", "id": 292705417, "lat": 51.5102919, "lon": -0.0861975, "tags": {"addr:city": "London", "addr:housenumber": "1", "addr:postcode": "EC3R 8BG", "addr:street": "Monument Street", "amenity": "pub", "brand": "Fuller's", "brand:wikidata": "Q5253950", "check_date": "2024-09-29", "cuisine": "regional", "fhrs:id": "842915", "fhrs:local_authority_id": "PI/000027767", "name": "The Hydrant", "opening_hours": "Mo-Fr 08:00-23:00; Sa 10:00-23:00; Su 10:00-18:00", "operator": "Fuller's", "outdoor_seating": "yes", "phone": "+44 20 7623 5446", "source": "survey", "toilets": "yes", "toilets:access": "yes", "toilets:wheelchair": "no", "website": "https://www.thehydrant.co.uk/", "wheelchair": "limited"}}, {"type": "node", "id": 292902272, "lat": 51.5142033, "lon": -0.1457904}, {"type": "node", "id": 292902774, "lat": 51.5160108, "lon": -0.1437063}, {"type": "node", "id": 292938407, "lat": 51.4483422, "lon": -0.1510468, "tags": {"addr:city": "London", "addr:housenumber": "39", "addr:postcode": "SW12 8PN", "addr:street": "Oldridge Road", "amenity": "pub", "fhrs:id": "297673", "name": "The Grove", "source:addr": "FHRS Open Data"}}, {"type": "node", "id": 293390260, "lat": 51.5389171, "lon": -0.1418712, "tags": {"addr:city": "London", "addr:housenumber": "2-3", "addr:postcode": "NW1 0AP", "addr:street": "Greenland Place", "addr:suburb": "Camden", "alt_name": "LD's Kitchen", "amenity": "pub", "check_date": "2025-04-12", "contact:email": "life@ourblackheart.com", "contact:phone": "+44 20 7428 9730", "diet:vegan": "yes", "diet:vegetarian": "no", "fhrs:id": "425883", "fhrs:local_authority_id": "61900", "food": "yes", "level": "0;1", "live_music": "yes", "name": "The Black Heart", "opening_hours": "Mo-We 15:00-00:00; Th 15:00-01:00; Fr 12:00-02:00; Sa 11:00-02:00; Su 12:00-12:00", "reservation": "yes", "toilets": "yes", "toilets:access": "customers", "website": "https://www.ourblackheart.com/", "wheelchair": "no"}}, {"type": "node", "id": 293506221, "lat": 51.4845509, "lon": -0.0935392, "tags": {"addr:city": "London", "addr:housenumber": "407", "addr:postcode": "SE17 2AW", "addr:street": "Walworth Road", "amenity": "pub", "check_date": "2023-09-12", "fhrs:id": "364151", "name": "The Red Lion", "source:addr": "FHRS Open Data", "toilets": "yes", "toilets:access": "customers"}}, {"type": "node", "id": 293516727, "lat": 51.4958695, "lon": -0.0996325, "tags": {"addr:city": "London", "addr:housename": "Metro Central Heights", "addr:housenumber": "119", "addr:postcode": "SE1 6DQ", "addr:street": "Newington Causeway", "amenity": "pub", "brand": "Wetherspoon", "brand:wikidata": "Q6109362", "brand:wikipedia": "en:Wetherspoons", "check_date": "2025-08-01", "contact:foursquare": "https://foursquare.com/v/the-rockingham-arms-wetherspoon/4bdaa3c02a3a0f476b95abb6", "contact:tripadvisor": "https://www.tripadvisor.com/Restaurant_Review-g186338-d3847847-Reviews-The_Rockingham_Arms-London_England.html", "dog": "no", "fhrs:id": "364748", "indoor_seating": "yes", "level": "0", "name": "The Rockingham Arms", "opening_hours": "Su-Th 08:00-23:00; Fr,Sa 08:00-24:00", "outdoor_seating": "yes", "phone": "+44 20 7940 0890", "source:addr": "FHRS Open Data", "website": "https://www.jdwetherspoon.com/pubs/the-rockingham-arms-elephant-and-castle/", "website:menu": "https://order.jdwetherspoon.com/venue/jdw/1260/menus", "wheelchair": "yes", "wikidata": "Q88916689"}}, {"type": "node", "id": 293754855, "lat": 51.5327738, "lon": -0.1373878, "tags": {"addr:city": "London", "addr:housenumber": "2", "addr:postcode": "NW1 2JU", "addr:street": "Lidlington Place", "amenity": "pub", "check_date": "2024-08-16", "contact:phone": "+44 207 387 2988", "fhrs:id": "733728", "indoor_seating": "yes", "name": "Escape Sports Bar & Restaurant", "opening_hours": "Mo-Sa 12:00-23:00; Su 12:00-22:00", "outdoor_seating": "yes", "toilets": "yes", "toilets:access": "customers", "website": "https://www.escapemornington.co.uk/"}}, {"type": "node", "id": 293810513, "lat": 51.52573, "lon": -0.1439948}, {"type": "node", "id": 293998098, "lat": 51.5351263, "lon": -0.1417273}, {"type": "node", "id": 294111165, "lat": 51.5261107, "lon": -0.0810645}, {"type": "node", "id": 294111440, "lat": 51.5266759, "lon": -0.0814764}, {"type": "node", "id": 294161411, "lat": 51.5237302, "lon": -0.1411047}, {"type": "node", "id": 294162222, "lat": 51.5139175, "lon": -0.05521, "tags": {"addr:city": "London", "addr:housenumber": "2-6", "addr:postcode": "E1 2QA", "addr:street": "Deancross Street", "amenity": "pub", "fhrs:id": "79407", "name": "The Dean Swift"}}, {"type": "node", "id": 294599679, "lat": 51.5259074, "lon": -0.1378517, "tags": {"addr:housenumber": "26", "addr:street": "Tolmers Square", "amenity": "pub", "brand": "Young's", "brand:wikidata": "Q8057802", "indoor_seating": "yes", "name": "Square Tavern", "operator": "Young's", "outdoor_seating": "yes", "toilets": "yes", "toilets:access": "customers"}}, {"type": "node", "id": 294659404, "lat": 51.527798, "lon": -0.131988, "tags": {"addr:city": "London", "addr:postcode": "NW1 2HS", "addr:street": "Eversholt Street", "addr:unit": "Unit 50", "amenity": "pub", "brand": "Fuller's", "brand:wikidata": "Q5253950", "check_date": "2025-09-11", "diet:kosher": "no", "diet:vegan": "yes", "diet:vegetarian": "yes", "fhrs:authority": "Camden", "fhrs:id": "425427", "fhrs:local_authority_id": "55804", "food": "yes", "indoor_seating": "yes", "internet_access": "wlan", "internet_access:fee": "no", "name": "The Doric Arch", "opening_hours": "Mo-Su 09:00-18:00", "operator": "Fuller's", "outdoor_seating": "no", "toilets": "yes", "toilets:access": "customers", "toilets:wheelchair": "no", "website": "https://www.doric-arch.co.uk/", "wheelchair": "no"}}, {"type": "node", "id": 294765140, "lat": 51.5333448, "lon": -0.1342188, "tags": {"amenity": "pub", "name": "Eastnor Castle", "toilets": "yes", "toilets:access": "customers", "wheelchair": "no"}}, {"type": "node", "id": 294874307, "lat": 51.511024, "lon": -0.089379}, {"type": "node", "id": 294950903, "lat": 51.5251618, "lon": -0.0905437, "tags": {"addr:city": "London", "addr:housename": "Bentima House", "addr:housenumber": "168-172", "addr:postcode": "EC1V 9BP", "addr:street": "Old Street", "amenity": "pub", "brand": "Wetherspoon", "brand:wikidata": "Q6109362", "brand:wikipedia": "en:Wetherspoons", "check_date": "2025-03-10", "dog": "no", "fhrs:id": "417165", "level": "-1", "name": "The Masque Haunt", "note": "FHRS says in basement", "operator": "JD Weatherspoon", "source:addr": "FHRS Open Data", "website": "https://www.jdwetherspoon.com/pubs/all-pubs/england/london/the-masque-haunt-old-street", "website:menu": "https://order.jdwetherspoon.com/venue/jdw/195/menus", "wheelchair": "limited", "wikidata": "Q88973878"}}, {"type": "node", "id": 295466191, "lat": 51.5011085, "lon": -0.1625201, "tags": {"amenity": "pub", "brand": "Greene King", "brand:wikidata": "Q5564162", "name": "Tattersalls Tavern", "website": "https://www.greeneking-pubs.co.uk/pubs/greater-london/tattersalls-tavern/"}}, {"type": "node", "id": 295905003, "lat": 51.4956292, "lon": -0.1460347, "tags": {"addr:city": "London", "addr:housenumber": "1", "addr:postcode": "SW1W 0NR", "addr:street": "Lower Belgrave Street", "amenity": "pub", "brand": "Greene King", "brand:wikidata": "Q5564162", "fhrs:id": "427738", "name": "The Victoria", "opening_hours": "Mo-Fr 11:00-23:00", "operator": "Taylor Walker", "website": "https://www.greeneking.co.uk/pubs/greater-london/victoria"}}, {"type": "node", "id": 295905009, "lat": 51.4981242, "lon": -0.1434293, "tags": {"addr:city": "London", "addr:housenumber": "43", "addr:postcode": "SW1W 0PP", "addr:street": "Buckingham Palace Road", "amenity": "pub", "fhrs:confidence_management": "20", "fhrs:hygiene": "10", "fhrs:id": "412685", "fhrs:local_authority_id": "00915/0023/0/000", "fhrs:rating": "1", "fhrs:structural": "5", "name": "Bbar", "outdoor_seating": "yes", "source": "TMJ-Mobile_0.6.2", "website": "https://www.bbarlondon.com/"}}, {"type": "node", "id": 295971752, "lat": 51.5025485, "lon": -0.1105758, "tags": {"addr:city": "London", "addr:housename": "The Old Fire Station", "addr:housenumber": "150", "addr:postcode": "SE1 8SB", "addr:street": "Waterloo Road", "amenity": "pub", "check_date": "2025-10-24", "check_date:opening_hours": "2025-07-11", "contact:email": "info@thefirestationwaterloo.com", "contact:facebook": "https://www.instagram.com/thefirestation_waterloo", "contact:instagram": "thefirestation_waterloo", "dog": "outside", "fhrs:id": "484690", "indoor_seating": "yes", "internet_access": "wlan", "name": "The Fire Station", "opening_hours": "Mo-Th 09:00-23:00; Fr-Sa 09:00-24:00; Su 09:00-22:30", "outdoor_seating": "yes", "payment:cash": "yes", "payment:credit_cards": "yes", "payment:debit_cards": "yes", "phone": "+44 20 3727 5938", "real_ale": "yes", "toilets": "yes", "toilets:access": "customers", "website": "https://www.firestationwaterloo.co.uk/", "website:menu": "https://www.firestationwaterloo.co.uk/menus", "wheelchair": "yes"}}, {"type": "node", "id": 295975602, "lat": 51.5126777, "lon": -0.0847022, "tags": {"entrance": "main", "note": "Entrance to the Crosse Keys"}}, {"type": "node", "id": 295975604, "lat": 51.5128537, "lon": -0.0842485, "tags": {"addr:city": "London", "addr:housenumber": "88", "addr:postcode": "EC3V 0DN", "addr:street": "Gracechurch Street", "amenity": "pub", "brewery": "Greene King", "check_date": "2025-06-06", "fhrs:id": "295271", "name": "The New Moon", "wheelchair": "yes"}}, {"type": "node", "id": 295979629, "lat": 51.513604, "lon": -0.0737842, "tags": {"addr:city": "London", "addr:housenumber": "15", "addr:postcode": "E1 8AH", "addr:street": "Little Somerset Street", "amenity": "pub", "check_date": "2025-05-06", "fhrs:id": "294973", "indoor_seating": "yes", "name": "Duke of Somerset", "operator": "Stonegate", "operator:wikidata": "Q7619176", "outdoor_seating": "yes", "website": "https://www.crafted-social.co.uk/duke-of-somerset-aldgate-london"}}, {"type": "node", "id": 296610112, "lat": 51.5122519, "lon": -0.0928038, "tags": {"addr:city": "London", "addr:housenumber": "65", "addr:postcode": "EC4N 5AA", "addr:street": "Cannon Street", "amenity": "pub", "brand": "Nicholson's", "brand:wikidata": "Q113130666", "fhrs:id": "293710", "indoor_seating": "yes", "name": "Sugar Loaf", "old_name": "O'Neills", "opening_hours": "Mo-Sa 11:00-23:00; Su 12:00-19:00", "outdoor_seating": "yes", "phone": "+44 20 7248 8928", "source:addr": "FSA Food Hygiene Rating Scheme open data", "website": "https://www.nicholsonspubs.co.uk/restaurants/london/thesugarloafcannonstreet", "wikidata": "Q27086020"}}, {"type": "node", "id": 296614817, "lat": 51.5108903, "lon": -0.0808223, "tags": {"addr:city": "London", "addr:housenumber": "1", "addr:postcode": "EC3R 7PP", "addr:street": "Minster Pavement", "amenity": "pub", "fhrs:id": "294086", "name": "Balls Brothers", "phone": "+44 20 7283 2838", "website": "https://ballsbrothersminstercourt.co.uk/"}}, {"type": "node", "id": 296620391, "lat": 51.5128687, "lon": -0.0701002, "tags": {"addr:city": "London", "addr:housenumber": "70", "addr:postcode": "E1 8EU", "addr:street": "Leman Street", "amenity": "pub", "contact:twitter": "@OliverConquest", "description": "quiz=Tue 8pm;wifi=free", "fhrs:id": "43052", "name": "The Oliver Conquest", "toilets": "yes", "toilets:access": "customers", "wheelchair": "yes"}}, {"type": "node", "id": 296889739, "lat": 51.5410234, "lon": -0.1422269}, {"type": "node", "id": 296889741, "lat": 51.5283514, "lon": -0.1389467, "tags": {"amenity": "pub", "name": "Shaker and Company", "source": "TMJ-Mobile_0.6.2"}}, {"type": "node", "id": 296891969, "lat": 51.5391316, "lon": -0.1422001, "tags": {"addr:city": "London", "addr:housenumber": "174", "addr:postcode": "NW1 0NE", "addr:street": "Camden High Street", "addr:suburb": "Camden", "amenity": "pub", "brewery": "yes", "check_date": "2025-11-03", "fhrs:id": "425579", "level": "0", "name": "The World's End", "payment:credit_cards": "yes", "payment:debit_cards": "yes", "payment:mastercard": "yes", "payment:visa": "yes", "source:addr:postcode": "FSA Food Hygiene Rating Scheme open data", "wheelchair": "limited", "wikidata": "Q7775871", "wikimedia_commons": "Category:The World's End, Camden Town", "wikipedia": "en:The World's End, Camden"}}, {"type": "node", "id": 297827897, "lat": 51.5069152, "lon": -0.1949536}, {"type": "node", "id": 298027445, "lat": 51.5114932, "lon": -0.1195766}, {"type": "node", "id": 298220599, "lat": 51.5181298, "lon": -0.1657799, "tags": {"addr:housenumber": "40-42", "addr:street": "Brendon Street", "amenity": "pub", "check_date": "2025-11-02", "name": "Lord Wargrave", "opening_hours": "Mo-Sa 10:00-23:30; Su 10:00-23:00", "phone": "+44 20 7723 0559", "website": "https://www.lordwargrave.com/"}}, {"type": "node", "id": 298220963, "lat": 51.5175308, "lon": -0.1640235, "tags": {"addr:housenumber": "45", "addr:street": "Harrowby Street", "amenity": "pub", "name": "Duke of York"}}, {"type": "node", "id": 298347049, "lat": 51.5281822, "lon": -0.1251425, "tags": {"addr:city": "London", "addr:housenumber": "114", "addr:postcode": "WC1H 9NT", "addr:street": "Judd Street", "amenity": "pub", "brewery": "various", "check_date": "2024-10-22", "email": "skinnersarms@douglasinns.co.uk", "fhrs:id": "424267", "food": "yes", "indoor_seating": "yes", "name": "Skinners Arms", "outdoor_seating": "yes", "payment:credit_cards": "yes", "payment:debit_cards": "yes", "phone": "+442078376521", "smoking": "outside", "source:addr": "FHRS Open Data", "website": "https://skinnersarmslondon.com/"}}, {"type": "node", "id": 298347050, "lat": 51.527567, "lon": -0.1241966, "tags": {"addr:city": "London", "addr:housenumber": "116", "addr:postcode": "WC1H 8BS", "addr:street": "Cromer Street", "amenity": "pub", "check_date": "2025-06-07", "fhrs:id": "426351", "indoor_seating": "yes", "name": "The Boot", "opening_hours": "Mo-Sa 12:00-23:00; Su 12:00-22:30", "outdoor_seating": "yes", "source": "survey", "source:postcode": "FHRS Open Data", "sport": "billiards", "wikidata": "Q7719374", "wikimedia_commons": "Category:The Boot, Kings Cross", "wikipedia": "en:The Boot, Cromer Street"}}, {"type": "node", "id": 299310964, "lat": 51.537413, "lon": -0.1031553, "tags": {"addr:city": "London", "addr:housenumber": "100", "addr:postcode": "N1 0NP", "addr:street": "Upper Street", "addr:suburb": "Islington", "air_conditioning": "yes", "amenity": "pub", "check_date": "2025-08-12", "fhrs:id": "724302", "indoor_seating": "yes", "name": "The Bull", "outdoor_seating": "yes", "payment:credit_cards": "yes", "payment:debit_cards": "yes", "source:addr": "FHRS Open Data"}}, {"type": "node", "id": 299446972, "lat": 51.533833, "lon": -0.1049942}, {"type": "node", "id": 299520332, "lat": 51.5158458, "lon": -0.0757338}, {"type": "node", "id": 299521883, "lat": 51.5182553, "lon": -0.0794636}, {"type": "node", "id": 299521885, "lat": 51.5178378, "lon": -0.0787842}, {"type": "node", "id": 299595796, "lat": 51.5375887, "lon": -0.1004346, "tags": {"amenity": "pub", "check_date": "2024-09-12", "indoor_seating": "yes", "name": "The King's Head", "outdoor_seating": "yes", "wikidata": "Q26670342"}}, {"type": "node", "id": 300413433, "lat": 51.4907087, "lon": -0.1834441}, {"type": "node", "id": 300425809, "lat": 51.49334, "lon": -0.175964}, {"type": "node", "id": 300452750, "lat": 51.4863743, "lon": -0.0004177, "tags": {"addr:city": "London", "addr:housenumber": "4-6", "addr:postcode": "SE10 9PD", "addr:street": "Ballast Quay", "amenity": "pub", "brand": "Young's", "brand:wikidata": "Q8057802", "contact:facebook": "CuttySarkPub", "contact:instagram": "CuttySarkPub", "contact:twitter": "CuttySarkPub", "diet:vegan": "no", "diet:vegetarian": "yes", "email": "cuttysark@youngs.co.uk", "fhrs:id": "694084", "food": "yes", "indoor_seating": "yes", "name": "The Cutty Sark", "opening_hours": "Mo-Sa 11:00-23:00; Su 12:00-22:30", "opening_hours:kitchen": "Mo-Sa 11:00-22:00; Su 11:30-21:00", "operator": "Young's", "outdoor_seating": "yes", "phone": "+44 20 8858 3146", "real_ale": "yes", "start_date": "1795", "website": "https://www.cuttysarkse10.co.uk/", "wikidata": "Q16988333"}}, {"type": "node", "id": 300500863, "lat": 51.5292754, "lon": -0.1439959, "tags": {"amenity": "pub", "name": "The Victory", "source": "TMJ-Mobile_0.6.2", "wheelchair": "limited"}}, {"type": "node", "id": 300971059, "lat": 51.5149119, "lon": -0.1809528}, {"type": "node", "id": 301516360, "lat": 51.5253696, "lon": -0.08372, "tags": {"addr:city": "London", "addr:housenumber": "76-78", "addr:postcode": "EC2A 4NE", "addr:street": "Paul Street", "amenity": "pub", "fhrs:id": "469714", "name": "The Princess of Shoreditch", "note": "gastro pub", "website": "https://www.theprincessofshoreditch.com/"}}, {"type": "node", "id": 301517576, "lat": 51.5231603, "lon": -0.0865513}, {"type": "node", "id": 302011571, "lat": 51.4866135, "lon": -0.1315923, "tags": {"addr:city": "London", "addr:housenumber": "79", "addr:postcode": "SW1V 3LA", "addr:street": "Grosvenor Road", "amenity": "pub", "fhrs:id": "410903", "name": "The Grosvenor", "payment:american_express": "no"}}, {"type": "node", "id": 302013654, "lat": 51.516962, "lon": -0.0803573, "tags": {"addr:city": "London", "addr:housenumber": "4-5", "addr:postcode": "EC2M 4RH", "addr:street": "Devonshire Row", "amenity": "pub", "fhrs:id": "293832", "name": "The Bull", "toilets:wheelchair": "no", "wheelchair": "limited"}}, {"type": "node", "id": 302013680, "lat": 51.5171576, "lon": -0.077128}, {"type": "node", "id": 302410081, "lat": 51.5391958, "lon": -0.106895, "tags": {"addr:city": "London", "addr:housenumber": "209 \u2013 211", "addr:interpolation": "odd", "addr:postcode": "N1 1LX", "addr:street": "Liverpool Road", "alt_name": "The Foxglove Free House", "amenity": "pub", "cuisine": "british", "email": "contact@thefoxglove.co.uk", "name": "The Foxglove", "opening_hours": "Mo-Tu 16:00-22:00; We 16:00-23:00; Th-Sa 12:00-23:00; Su 12:00-21:00", "phone": "+442076097129", "smoking": "outside", "website": "https://www.thefoxglove.co.uk/"}}, {"type": "node", "id": 302866774, "lat": 51.4893035, "lon": -0.0907551, "tags": {"amenity": "pub"}}, {"type": "node", "id": 303189871, "lat": 51.4783235, "lon": -0.0539226, "tags": {"addr:city": "London", "addr:housenumber": "888", "addr:postcode": "SE15 1NQ", "addr:street": "Old Kent Road", "amenity": "pub", "fhrs:id": "364122", "name": "The Windsor", "toilets": "yes", "toilets:access": "customers"}}, {"type": "node", "id": 303585906, "lat": 51.5091024, "lon": -0.1235665, "tags": {"addr:city": "London", "addr:housenumber": "2", "addr:postcode": "WC2N 6HH", "addr:street": "George Court", "amenity": "pub", "contact:phone": "+44 20 7839 8760", "fhrs:confidence_management": "5", "fhrs:hygiene": "0", "fhrs:id": "414454", "fhrs:local_authority_id": "01796/4000/0/000", "fhrs:rating": "5", "fhrs:structural": "5", "lgbtq": "primary", "name": "The Retro Bar", "opening_hours": "Mo-Th 16:00-23:00; Fr,Sa 14:00-23:00; Su 14:00-22:30", "operator": "Stonegate", "operator:wikidata": "Q7619176", "payment:american_express": "yes", "real_ale": "no", "toilets": "yes", "toilets:access": "customers", "toilets:female": "yes", "toilets:male": "yes", "toilets:unisex": "no", "toilets:wheelchair": "no", "website": "https://www.retrobarlondon.co.uk/london", "wheelchair": "no", "wikimedia_commons": "File:The_Retro_Bar.jpg"}}, {"type": "node", "id": 304690320, "lat": 51.496853, "lon": -0.2326016}, {"type": "node", "id": 304815751, "lat": 51.4821912, "lon": -0.2232576}, {"type": "node", "id": 304921897, "lat": 51.5363241, "lon": -0.0618289}, {"type": "node", "id": 305064700, "lat": 51.5273342, "lon": -0.0945545}, {"type": "node", "id": 305415271, "lat": 51.5457466, "lon": -0.112832, "tags": {"amenity": "pub", "created_by": "Merkaartor 0.11", "name": "The Jolly Sisters"}}, {"type": "node", "id": 305415325, "lat": 51.5463365, "lon": -0.1087488, "tags": {"addr:city": "London", "addr:postcode": "N7 8PR", "addr:street": "Liverpool Road", "amenity": "pub", "name": "The Duchess of Kent", "toilets": "yes", "toilets:access": "customers"}}, {"type": "node", "id": 305468914, "lat": 51.537852, "lon": -0.0451644}, {"type": "node", "id": 305509279, "lat": 51.532929, "lon": -0.0417424}, {"type": "node", "id": 305760823, "lat": 51.5111062, "lon": -0.1255283, "tags": {"addr:city": "London", "addr:housenumber": "14", "addr:postcode": "WC2N 4LF", "addr:street": "New Row", "amenity": "pub", "brand": "Nicholson's", "brand:wikidata": "Q113130666", "check_date": "2022-06-27", "fhrs:confidence_management": "0", "fhrs:hygiene": "5", "fhrs:id": "428050", "fhrs:local_authority_id": "01201/0014/0/000", "fhrs:rating": "5", "fhrs:structural": "5", "name": "The White Swan", "source:addr": "FSA Food Hygiene Ratings Database", "source:postcode": "FSA Food Hygiene Ratings Database", "toilets": "yes", "toilets:access": "customers", "website": "https://www.nicholsonspubs.co.uk/restaurants/london/thewhiteswanlondon", "wheelchair": "limited", "wikidata": "Q18393967"}}, {"type": "node", "id": 306135577, "lat": 51.5149462, "lon": -0.0855573, "tags": {"addr:city": "London", "addr:housenumber": "26", "addr:postcode": "EC2N 2AN", "addr:street": "Throgmorton Street", "addr:unit": "Retail Unit", "amenity": "pub", "fhrs:id": "294330", "name": "Phoenix", "wheelchair": "limited"}}, {"type": "node", "id": 306499353, "lat": 51.5230531, "lon": -0.1419511}, {"type": "node", "id": 306659436, "lat": 51.5012622, "lon": -0.1073934, "tags": {"addr:city": "London", "addr:housenumber": "30", "addr:postcode": "SE1 8QA", "addr:street": "Webber Street", "amenity": "pub", "check_date": "2025-08-07", "fhrs:authority": "Lambeth", "fhrs:id": "484694", "fhrs:inspectiondate": "2013-10-31", "fhrs:rating": "5", "name": "The Stage Door", "opening_hours": "Mo-Su 12:00-23:30", "wheelchair": "yes"}}, {"type": "node", "id": 306666717, "lat": 51.5029506, "lon": -0.1081212, "tags": {"addr:city": "London", "addr:housenumber": "86", "addr:postcode": "SE1 8LW", "addr:street": "The Cut", "alt_name": "The Windmill Tavern", "amenity": "pub", "brand": "Fuller's", "brand:wikidata": "Q5253950", "cuisine": "thai", "fhrs:id": "690943", "food": "yes", "name": "The Windmill", "source:postcode": "FHRS Open Data", "website": "https://www.windmillwaterloo.co.uk/", "wheelchair": "no"}}, {"type": "node", "id": 307853039, "lat": 51.4942659, "lon": -0.1324481}, {"type": "node", "id": 308838887, "lat": 51.5332599, "lon": -0.0984678}, {"type": "node", "id": 310598894, "lat": 51.4618088, "lon": -0.1993576}, {"type": "node", "id": 311153571, "lat": 51.5056546, "lon": -0.1376692, "tags": {"addr:city": "London", "addr:housenumber": "23", "addr:postcode": "SW1A 1EA", "addr:street": "Crown Passage", "amenity": "pub", "fhrs:id": "412441", "name": "The Red Lion", "wheelchair": "no", "wikidata": "Q26319820"}}, {"type": "node", "id": 311481378, "lat": 51.5254495, "lon": -0.1788998, "tags": {"addr:housenumber": "3", "addr:street": "Lanark Place", "amenity": "pub", "check_date": "2024-11-04", "name": "Windsor Castle"}}, {"type": "node", "id": 311877348, "lat": 51.5209322, "lon": -0.1231994, "tags": {"amenity": "pub", "name": "Dean's Bar", "toilets": "yes", "toilets:access": "customers"}}, {"type": "node", "id": 311974886, "lat": 51.5187974, "lon": -0.0861398}, {"type": "node", "id": 312156665, "lat": 51.5145794, "lon": -0.121732, "tags": {"addr:city": "London", "addr:housenumber": "150-151", "addr:postcode": "WC2B 5TD", "addr:street": "Drury Lane", "amenity": "pub", "brand": "Greene King", "brand:wikidata": "Q5564162", "check_date": "2025-08-08", "fhrs:id": "427881", "name": "The Prince of Wales", "toilets": "yes", "toilets:access": "customers", "website": "https://www.greeneking.co.uk/pubs/greater-london/prince-of-wales", "wheelchair": "no"}}, {"type": "node", "id": 312156722, "lat": 51.5150276, "lon": -0.1218689}, {"type": "node", "id": 312157109, "lat": 51.5151821, "lon": -0.1232622}, {"type": "node", "id": 312157927, "lat": 51.5161398, "lon": -0.1242104}, {"type": "node", "id": 312159181, "lat": 51.523319, "lon": -0.143984, "tags": {"addr:city": "London", "addr:housenumber": "240-242", "addr:postcode": "W1W 5QU", "addr:street": "Great Portland Street", "amenity": "pub", "brewery": "various", "check_date": "2025-06-24", "diet:vegan": "yes", "diet:vegetarian": "yes", "fhrs:confidence_management": "0", "fhrs:hygiene": "0", "fhrs:id": "427851", "fhrs:local_authority_id": "00603/0240/0/000", "fhrs:rating": "2", "fhrs:structural": "15", "food": "yes", "indoor_seating": "yes", "name": "The Albany", "outdoor_seating": "no", "payment:american_express": "yes", "payment:cash": "yes", "payment:mastercard": "yes", "payment:visa": "yes", "payment:visa_debit": "yes", "source:addr": "FSA Food Hygiene Ratings Database", "source:postcode": "FSA Food Hygiene Ratings Database", "sport": "soccer", "toilets": "yes", "wheelchair": "yes"}}, {"type": "node", "id": 312667111, "lat": 51.4883145, "lon": -0.204229}, {"type": "node", "id": 312667741, "lat": 51.4874054, "lon": -0.2036592}, {"type": "node", "id": 312668636, "lat": 51.4865599, "lon": -0.210879, "tags": {"amenity": "pub", "created_by": "Potlatch 0.10f", "name": "The Colton Arms"}}, {"type": "node", "id": 312669234, "lat": 51.4867112, "lon": -0.203278}, {"type": "node", "id": 312669400, "lat": 51.4870402, "lon": -0.2031196, "tags": {"amenity": "pub", "name": "The Seven Stars", "wikidata": "Q20876293"}}, {"type": "node", "id": 312670840, "lat": 51.4850958, "lon": -0.2024287},