{"version": 0.6, "generator": "Overpass API 0.7.62.8 e802775f", "osm3s": {"timestamp_osm_base": "2026-01-07T02:40:14Z", "copyright": "The data included in this document is from www.openstreetmap.org. The data is made available under ODbL."}, "elements": [{"type": "node", "id": 25475389, "lat": 51.5265807, "lon": -0.1292505, "tags": {"amenity": "cafe", "fixme": "not on FHRS", "name": "Woburn Cafe"}}, {"type": "node", "id": 25497832, "lat": 51.5247641, "lon": -0.1161125, "tags": {"addr:housenumber": "250", "amenity": "cafe", "name": "Cafe Angel"}}, {"type": "node", "id": 32843796, "lat": 51.5250758, "lon": -0.1349012}, {"type": "node", "id": 32843797, "lat": 51.5249361, "lon": -0.1351414}, {"type": "node", "id": 33176143, "lat": 51.4567004, "lon": -0.1933219}, {"type": "node", "id": 56211065, "lat": 51.4682998, "lon": -0.212648}, {"type": "node", "id": 56211068, "lat": 51.4683268, "lon": -0.2126014}, {"type": "node", "id": 56211069, "lat": 51.4683105, "lon": -0.212577}, {"type": "node", "id": 56211071, "lat": 51.4683224, "lon": -0.2124569}, {"type": "node", "id": 56211073, "lat": 51.4682465, "lon": -0.2123437}, {"type": "node", "id": 96091653, "lat": 51.5246347, "lon": -0.0354793}, {"type": "node", "id": 130210673, "lat": 51.5046688, "lon": -0.1696555, "tags": {"amenity": "cafe", "bar": "yes", "check_date": "2023-08-27", "drive_through": "no", "highchair": "yes", "indoor_seating": "yes", "level": "0", "name": "The Serpentine Lido Cafe", "outdoor_seating": "yes", "payment:contactless": "yes", "payment:credit_cards": "yes", "payment:debit_cards": "yes", "payment:mastercard": "yes", "payment:visa": "yes", "smoking": "outside", "source": "survey", "takeaway": "yes", "website": "https://www.royalparks.org.uk/parks/hyde-park/food-and-drink/lido-bar-and-cafe", "wheelchair": "yes"}}, {"type": "node", "id": 140681851, "lat": 51.4989916, "lon": -0.1354995, "tags": {"addr:city": "London", "addr:country": "GB", "addr:housenumber": "16-18", "addr:postcode": "SW1H 0AD", "addr:street": "Palmer Street", "amenity": "cafe", "brand": "Starbucks", "brand:wikidata": "Q37158", "brand:wikipedia": "en:Starbucks", "cuisine": "coffee_shop", "fhrs:id": "428179", "name": "Starbucks", "official_name": "Starbucks Coffee", "opening_hours": "Mo-Fr 06:00-19:00; Sa 09:00-17:00", "takeaway": "yes"}}, {"type": "node", "id": 140693253, "lat": 51.4983099, "lon": -0.1353565}, {"type": "node", "id": 160566891, "lat": 51.5246118, "lon": -0.0355446}, {"type": "node", "id": 169436940, "lat": 51.4987752, "lon": -0.1412257, "tags": {"addr:city": "London", "addr:housenumber": "19-21", "addr:postcode": "SW1E 5HS", "addr:street": "Palace Street", "amenity": "cafe", "fhrs:confidence_management": "5", "fhrs:hygiene": "5", "fhrs:id": "413465", "fhrs:local_authority_id": "01205/0019/0/004", "fhrs:rating": "5", "fhrs:structural": "5", "name": "Buckingham Coffee Lounge", "source:addr": "FSA Food Hygiene Ratings Database", "source:postcode": "FSA Food Hygiene Ratings Database"}}, {"type": "node", "id": 169544799, "lat": 51.4940446, "lon": -0.132242}, {"type": "node", "id": 203708008, "lat": 51.5136479, "lon": -0.0331884}, {"type": "node", "id": 244056695, "lat": 51.5246924, "lon": -0.0752813, "tags": {"addr:city": "London", "addr:housenumber": "25", "addr:postcode": "E2 7HR", "addr:street": "Old Nichol Street", "amenity": "cafe", "name": "Beans & Beyond"}}, {"type": "node", "id": 245052881, "lat": 51.5232699, "lon": -0.1079375}, {"type": "node", "id": 248074279, "lat": 51.5130377, "lon": -0.1043806}, {"type": "node", "id": 249314702, "lat": 51.5042616, "lon": -0.0612495, "tags": {"addr:city": "London", "addr:housename": "Turks Head Cafe", "addr:housenumber": "1", "addr:postcode": "E1W 2PA", "addr:street": "Green Bank", "alt_name": "Bistro Bardot", "amenity": "cafe", "contact:instagram": "https://www.instagram.com/theturksheadwapping/", "cuisine": "international", "email": "info@bistrobardot.co.uk", "fhrs:id": "79346", "name": "Turk's Head Cafe", "opening_hours": "Mo 16:00-22:00; Tu-Fr 18:00-23:00; Sa 09:00-23:00", "outdoor_seating": "yes", "phone": "+44 20 7709 0779", "smoking": "outside", "takeaway": "yes", "website": "https://www.bistrobardot.co.uk/"}}, {"type": "node", "id": 256497884, "lat": 51.5134807, "lon": -0.1165232, "tags": {"addr:city": "London", "addr:housename": "Columbia House", "addr:housenumber": "69", "addr:postcode": "WC2B 4RR", "addr:street": "Aldwych", "alt_name": "LSE Garrick", "amenity": "cafe", "fhrs:id": "412911", "fhrs:local_authority_id": "00974/4000/0/001", "level": "0;-1", "name": "The Garrick", "opening_hours": "Mo-Fr 08:00-19:00", "operator": "London School of Economics and Political Science (LSE)", "smoking": "no", "source": "http://www.lse.ac.uk/intranet/LSEServices/cateringServices/restaurantsAndCafes/garrick.aspx", "website": "http://www.lse.ac.uk/intranet/LSEServices/cateringServices/restaurantsAndCafes/garrick.aspx", "wheelchair": "limited"}}, {"type": "node", "id": 257469295, "lat": 51.497468, "lon": -0.2373022}, {"type": "node", "id": 264524115, "lat": 51.5044528, "lon": -0.0784709, "tags": {"addr:city": "London", "addr:postcode": "SE1 2RL", "amenity": "cafe", "name": "Caffe Nomma Italian", "old_name": "Cafe Fratelli"}}, {"type": "node", "id": 264625038, "lat": 51.5270245, "lon": -0.0837537, "tags": {"addr:city": "London", "addr:housenumber": "21", "addr:postcode": "N1 6HB", "addr:street": "Pitfield Street", "amenity": "cafe", "fhrs:id": "470675", "name": "Neds Noodle Bar", "source": "survey"}}, {"type": "node", "id": 267406074, "lat": 51.5059312, "lon": -0.1171709, "tags": {"addr:city": "London", "addr:housename": "Royal Festival Hall", "addr:postcode": "SE1 8XX", "amenity": "cafe", "check_date": "2023-12-17", "contact:website": "https://www.southbankcentre.co.uk/visit/cafes-restaurants-bars/riverside-terrace-cafe", "fhrs:id": "483405", "name": "Riverside Terrace Cafe", "opening_hours": "Mo-Tu 10:00-18:00; We-Su 10:00-20:30", "source:addr": "FHRS Open Data", "wheelchair": "yes", "wheelchair:description": "Lift from ground floor, Low counter. Wide doors to outside seating. Accessible Toilets not checked. [6/2017 lift to Jubilee Bridge not working]"}}, {"type": "node", "id": 269563578, "lat": 51.4984342, "lon": -0.0661086}, {"type": "node", "id": 269563583, "lat": 51.4983321, "lon": -0.0661466}, {"type": "node", "id": 272077848, "lat": 51.4922485, "lon": -0.1400786}, {"type": "node", "id": 273217489, "lat": 51.496539, "lon": -0.1354705, "tags": {"amenity": "cafe", "name": "City Brunch", "old_name": "XLNT", "outdoor_seating": "yes", "start_date": "2020-01", "wheelchair": "limited"}}, {"type": "node", "id": 273217510, "lat": 51.4964968, "lon": -0.1357931, "tags": {"addr:city": "London", "addr:country": "GB", "addr:housenumber": "12", "addr:postcode": "SW1P 1RZ", "addr:street": "Artillery Row", "amenity": "cafe", "fhrs:id": "411329", "name": "Cafe Nuvo", "old_name": "Cafe Hamlet", "opening_hours": "Mo-Fr 06:00-16:00; Sa 07:00-14:00"}}, {"type": "node", "id": 273933958, "lat": 51.489, "lon": -0.1920131, "tags": {"addr:city": "London", "addr:housenumber": "270-272", "addr:postcode": "SW5 9HR", "addr:street": "Old Brompton Road", "amenity": "cafe", "brand": "Costa", "brand:wikidata": "Q608845", "brand:wikipedia": "en:Costa Coffee", "cuisine": "coffee_shop", "fhrs:id": "877752", "fryup": "yes", "name": "Costa", "phone": "+44 1932 784949", "takeaway": "yes", "website": "https://www.costa.co.uk"}}, {"type": "node", "id": 273933965, "lat": 51.4899869, "lon": -0.190421, "tags": {"addr:housenumber": "229", "addr:street": "Earl's Court Road", "amenity": "cafe", "name": "Caff\u00e8 du Coin", "phone": "+44 20 7373 1995"}}, {"type": "node", "id": 276757485, "lat": 51.4931224, "lon": -0.1444353, "tags": {"amenity": "cafe", "name": "Treat's"}}, {"type": "node", "id": 279249388, "lat": 51.5154204, "lon": -0.0603671, "tags": {"addr:city": "London", "addr:housenumber": "31", "addr:postcode": "E1 2DL", "addr:street": "Nelson Street", "amenity": "cafe", "fhrs:id": "83720", "name": "Cafe Donatella"}}, {"type": "node", "id": 281851003, "lat": 51.525503, "lon": -0.1538118, "tags": {"amenity": "cafe", "check_date": "2024-06-14", "created_by": "Potlatch 0.10b", "name": "The Tennis Centre", "payment:cash": "no", "payment:credit_cards": "yes", "payment:debit_cards": "yes"}}, {"type": "node", "id": 282117011, "lat": 51.4804805, "lon": -0.1589365, "tags": {"amenity": "cafe", "name": "Tea Terrace"}}, {"type": "node", "id": 286493172, "lat": 51.4991305, "lon": -0.0736417, "tags": {"amenity": "cafe", "name": "Archway Cafe"}}, {"type": "node", "id": 287453553, "lat": 51.5005539, "lon": -0.0914286, "tags": {"amenity": "cafe", "indoor_seating": "yes", "name": "Twists Sandwich Bar", "outdoor_seating": "no"}}, {"type": "node", "id": 291969070, "lat": 51.5513745, "lon": -0.0555368, "tags": {"addr:city": "London", "addr:housenumber": "76a", "addr:postcode": "E5 8HB", "addr:street": "Clarence Road", "amenity": "cafe", "changing_table": "no", "check_date": "2025-07-26", "check_date:opening_hours": "2025-07-26", "contact:email": "orders@blackcatcafe.co.uk", "contact:whatsapp": "+447515493056", "cuisine": "burger;sandwich;curry;breakfast", "delivery": "yes", "diet:vegan": "only", "diet:vegetarian": "only", "dog": "yes", "drink:coffee": "yes", "fhrs:id": "696635", "happycow:id": "41511", "indoor_seating": "yes", "internet_access": "yes", "internet_access:fee": "customers", "internet_access:ssid": "BLACKCATCAFE", "level": "0", "name": "Black Cat Cafe", "opening_hours": "Mo,Th-Su 09:00-16:00; Tu-We off", "outdoor_seating": "no", "payment:credit_cards": "yes", "payment:debit_cards": "yes", "phone": "+44 20 8985 7091", "takeaway": "yes", "toilets": "yes", "toilets:access": "customers", "website": "http://www.blackcatcafe.co.uk/", "wheelchair": "limited"}}, {"type": "node", "id": 292011536, "lat": 51.4548973, "lon": -0.1193419, "tags": {"addr:city": "London", "addr:housenumber": "91", "addr:postcode": "SW2 1AA", "addr:street": "Brixton Hill", "amenity": "cafe", "check_date": "2025-07-17", "cuisine": "coffee_shop", "fhrs:authority": "Lambeth", "fhrs:id": "483223", "fhrs:inspectiondate": "2014-02-07", "fhrs:rating": "4", "name": "Caf\u00e9 on the Hill"}}, {"type": "node", "id": 292011982, "lat": 51.4547019, "lon": -0.1199703, "tags": {"addr:city": "London", "addr:housenumber": "96", "addr:postcode": "SW2 1QN", "addr:street": "Brixton Hill", "amenity": "cafe", "check_date": "2025-07-17", "cuisine": "coffee_shop", "fhrs:authority": "Lambeth", "fhrs:id": "509160", "fhrs:inspectiondate": "2013-02-14", "fhrs:rating": "1", "name": "Caf\u00e9 Tana", "wifi": "no"}}, {"type": "node", "id": 292050852, "lat": 51.5334901, "lon": -0.1113167}, {"type": "node", "id": 292387300, "lat": 51.4973427, "lon": -0.1295433, "tags": {"amenity": "cafe", "name": "Wash House", "wheelchair": "yes"}}, {"type": "node", "id": 292902774, "lat": 51.5160108, "lon": -0.1437063}, {"type": "node", "id": 293888877, "lat": 51.5087846, "lon": -0.1878234}, {"type": "node", "id": 295971749, "lat": 51.507446, "lon": -0.1227884, "tags": {"addr:city": "London", "amenity": "cafe", "brand": "Starbucks", "brand:wikidata": "Q37158", "brand:wikipedia": "en:Starbucks", "cuisine": "coffee_shop", "diet:vegetarian": "yes", "indoor_seating": "yes", "name": "Starbucks", "official_name": "Starbucks Coffee", "outdoor_seating": "no", "payment:american_express": "yes", "takeaway": "yes", "website": "https://www.starbucks.com/store-locator/store/2609/embankment-1-3-villiers-street-london-eng-wc-2-n-6-nn-gb", "wheelchair": "no"}}, {"type": "node", "id": 299444032, "lat": 51.5363861, "lon": -0.1037828, "tags": {"addr:city": "London", "addr:housenumber": "75", "addr:postcode": "N1 0NU", "addr:street": "Upper Street", "addr:suburb": "Islington", "amenity": "cafe", "brand": "Caff\u00e8 Nero", "brand:wikidata": "Q675808", "brand:wikipedia": "en:Caff\u00e8 Nero", "check_date": "2024-08-22", "cuisine": "coffee_shop", "fhrs:id": "754463", "name": "Caff\u00e8 Nero", "opening_hours": "Mo-Fr 06:30-19:00; Sa,Su 07:30-20:00", "source:addr": "FHRS Open Data", "takeaway": "yes", "website": "https://www.caffenero.com/uk/stores/islington"}}, {"type": "node", "id": 299596361, "lat": 51.5375804, "lon": -0.0998346, "tags": {"amenity": "cafe", "check_date": "2024-09-12", "comment": "wifi pass changes every month or two", "cuisine": "coffee_shop", "indoor_seating": "yes", "internet_access": "wlan", "internet_access:password": "yes", "name": "Dolce Coffee", "outdoor_seating": "yes"}}, {"type": "node", "id": 300425855, "lat": 51.491428, "lon": -0.1801198, "tags": {"addr:housenumber": "163", "addr:street": "Gloucester Road", "amenity": "cafe", "name": "Gloucester Road Cafe", "phone": "+44 20 7373 8934"}}, {"type": "node", "id": 300435152, "lat": 51.4583633, "lon": -0.1486927, "tags": {"amenity": "cafe", "check_date": "2025-01-29", "cuisine": "italian;pizza;pasta;pastry;ice_cream", "diet:vegetarian": "yes", "dog": "leashed", "indoor_seating": "yes", "internet_access": "wlan", "name": "Pear Tree Cafe", "opening_hours": "Mo-Fr 08:00-16:00; Sa-Su 08:00-17:00", "outdoor_seating": "yes", "payment:credit_cards": "yes", "payment:debit_cards": "yes", "phone": "+44 20 7924 2429", "takeaway": "yes", "website": "https://www.peartreecafe.co.uk/", "wheelchair": "yes"}}, {"type": "node", "id": 301010018, "lat": 51.4919407, "lon": -0.1381982}, {"type": "node", "id": 302013692, "lat": 51.5159106, "lon": -0.077546}, {"type": "node", "id": 302013694, "lat": 51.5158476, "lon": -0.0774192}, {"type": "node", "id": 306036143, "lat": 51.5369333, "lon": -0.0962864, "tags": {"amenity": "cafe", "created_by": "Potlatch 0.10e", "cuisine": "italian", "name": "Saponara"}}, {"type": "node", "id": 306135270, "lat": 51.5163154, "lon": -0.0821123}, {"type": "node", "id": 306664578, "lat": 51.5009039, "lon": -0.1037432, "tags": {"addr:street": "Webber Street", "amenity": "cafe", "fryup": "yes", "name": "Caffe Deniro", "takeaway": "yes"}}, {"type": "node", "id": 307103271, "lat": 51.5012746, "lon": -0.1049059, "tags": {"addr:city": "London", "addr:street": "Blackfriars Road", "amenity": "cafe", "check_date": "2025-08-04", "cuisine": "breakfast;sandwich;pasta;cake;salad", "diet:vegan": "limited", "diet:vegetarian": "yes", "internet_access": "no", "name": "Masters", "outdoor_seating": "yes", "payment:cash": "yes", "payment:credit_cards": "yes", "payment:debit_cards": "yes", "takeaway": "yes"}}, {"type": "node", "id": 308839176, "lat": 51.5322618, "lon": -0.1064336, "tags": {"amenity": "cafe", "brand": "Starbucks", "brand:wikidata": "Q37158", "brand:wikipedia": "en:Starbucks", "check_date": "2025-10-15", "cuisine": "coffee_shop", "level": "0", "name": "Starbucks", "official_name": "Starbucks Coffee", "opening_hours": "Mo-Fr 18:30-19:30; Sa 07:30-19:00; Su 08:30-19:00", "payment:credit_cards": "yes", "payment:debit_cards": "yes", "payment:mastercard": "yes", "payment:visa": "yes", "takeaway": "yes", "website": "https://www.starbucks.com/store-locator/store/2507/islington-high-street-7-islington-high-st-london-eng-n-1-9-lq-gb", "wheelchair": "yes"}}, {"type": "node", "id": 308839732, "lat": 51.5283695, "lon": -0.0916174, "tags": {"addr:city": "London", "addr:housenumber": "221", "addr:postcode": "EC1V 1JN", "addr:street": "City Road", "amenity": "cafe", "fhrs:id": "468750", "indoor_seating": "yes", "name": "The Shepherdess", "opening_hours": "Mo-Fr 06:30-16:00, Sa 07:30-15:00", "outdoor_seating": "yes", "source:addr": "FHRS Open Data", "wheelchair": "no"}}, {"type": "node", "id": 311877305, "lat": 51.5140415, "lon": -0.1256046, "tags": {"amenity": "cafe", "brand": "Costa", "brand:wikidata": "Q608845", "brand:wikipedia": "en:Costa Coffee", "cuisine": "coffee_shop", "name": "Costa", "takeaway": "yes"}}, {"type": "node", "id": 312529079, "lat": 51.4952064, "lon": -0.1325967}, {"type": "node", "id": 312529233, "lat": 51.4953662, "lon": -0.1328556}, {"type": "node", "id": 313100914, "lat": 51.5099573, "lon": -0.1979637, "tags": {"amenity": "cafe", "name": "Taxi Driver's Cafe"}}, {"type": "node", "id": 313101265, "lat": 51.5089792, "lon": -0.196133}, {"type": "node", "id": 313101277, "lat": 51.5088934, "lon": -0.1966509}, {"type": "node", "id": 313913802, "lat": 51.4966438, "lon": -0.1335105, "tags": {"addr:city": "London", "addr:housenumber": "51", "addr:postcode": "SW1P 2HY", "addr:street": "Sutton Ground", "amenity": "cafe", "drive_through": "no", "name": "Caff\u00e9 Pronto Grill Bar", "wheelchair": "no"}}, {"type": "node", "id": 322970462, "lat": 51.4842429, "lon": -0.0933809, "tags": {"addr:city": "London", "addr:housenumber": "2b", "addr:postcode": "SE17 2AY", "addr:street": "Westmoreland Road", "amenity": "cafe", "fhrs:id": "362758", "name": "Cafe Silam", "source:addr": "FHRS Open Data", "wheelchair": "limited"}}, {"type": "node", "id": 322979557, "lat": 51.4843489, "lon": -0.0935555, "tags": {"addr:city": "London", "addr:housenumber": "1", "addr:postcode": "SE5 0EZ", "addr:street": "Camberwell Road", "amenity": "cafe", "check_date": "2025-08-20", "name": "Echo Expresso"}}, {"type": "node", "id": 323307943, "lat": 51.4597989, "lon": -0.2117737}, {"type": "node", "id": 323307959, "lat": 51.4599178, "lon": -0.2116975}, {"type": "node", "id": 331421031, "lat": 51.5056371, "lon": -0.1879323}, {"type": "node", "id": 331880922, "lat": 51.5465143, "lon": -0.1035031, "tags": {"addr:city": "London", "addr:floor": "Ground Floor Cafe", "addr:housenumber": "6", "addr:postcode": "N5 1RD", "addr:street": "Highbury Corner", "addr:suburb": "Islington", "amenity": "cafe", "diet:vegetarian": "yes", "fhrs:id": "416668", "name": "Amici", "source:addr": "FHRS Open Data"}}, {"type": "node", "id": 332041595, "lat": 51.520943, "lon": -0.1348273}, {"type": "node", "id": 332041596, "lat": 51.5209011, "lon": -0.1349343}, {"type": "node", "id": 332041597, "lat": 51.5209488, "lon": -0.1349825}, {"type": "node", "id": 332041599, "lat": 51.5209907, "lon": -0.1348755}, {"type": "node", "id": 332117592, "lat": 51.5277186, "lon": -0.1262783, "tags": {"amenity": "cafe", "check_date": "2024-09-24", "cuisine": "coffee_shop;turkish", "name": "Sandwich Street Kitchen", "outdoor_seating": "yes"}}, {"type": "node", "id": 333167315, "lat": 51.5409182, "lon": -0.116985, "tags": {"amenity": "cafe", "name": "Tocca"}}, {"type": "node", "id": 333167321, "lat": 51.5409648, "lon": -0.1171608}, {"type": "node", "id": 333167385, "lat": 51.5422743, "lon": -0.1174779, "tags": {"amenity": "cafe", "name": "La Primavera"}}, {"type": "node", "id": 333185603, "lat": 51.5436684, "lon": -0.1176996, "tags": {"addr:city": "London", "addr:housenumber": "377", "addr:postcode": "N7 9DQ", "addr:street": "Caledonian Road", "amenity": "cafe", "fhrs:id": "1085602", "name": "La Caf\u00e9 Delight", "source:addr": "FHRS Open Data"}}, {"type": "node", "id": 333185671, "lat": 51.5449526, "lon": -0.117926, "tags": {"amenity": "cafe", "name": "The Breakout"}}, {"type": "node", "id": 334507024, "lat": 51.5236963, "lon": -0.08411, "tags": {"amenity": "cafe", "level": "-1", "name": "Basement Cafe"}}, {"type": "node", "id": 334631073, "lat": 51.525232, "lon": -0.1216222, "tags": {"amenity": "cafe", "created_by": "Potlatch 0.10f"}}, {"type": "node", "id": 336053293, "lat": 51.532949, "lon": -0.1112097, "tags": {"addr:housenumber": "42a", "addr:street": "Penton Street", "amenity": "cafe", "name": "Cafe Olive"}}, {"type": "node", "id": 338463486, "lat": 51.5180368, "lon": -0.1117299}, {"type": "node", "id": 338463487, "lat": 51.5181778, "lon": -0.1131165}, {"type": "node", "id": 338505172, "lat": 51.5156884, "lon": -0.111853, "tags": {"amenity": "cafe", "brand": "Costa", "brand:wikidata": "Q608845", "brand:wikipedia": "en:Costa Coffee", "cuisine": "coffee_shop", "name": "Costa", "takeaway": "yes", "website": "https://www.costa.co.uk/"}}, {"type": "node", "id": 338507303, "lat": 51.5185773, "lon": -0.1191786}, {"type": "node", "id": 338507313, "lat": 51.5178134, "lon": -0.1193869, "tags": {"addr:city": "London", "addr:housenumber": "100-110", "addr:postcode": "WC1V 6QL", "addr:street": "High Holborn", "amenity": "cafe", "brand": "Caff\u00e8 Nero", "brand:wikidata": "Q675808", "cuisine": "coffee_shop", "name": "Caff\u00e8 Nero", "phone": "+44 20 7404 6491", "takeaway": "yes"}}, {"type": "node", "id": 338507320, "lat": 51.5175712, "lon": -0.1200835, "tags": {"addr:city": "London", "addr:housenumber": "226", "addr:postcode": "WC1V 7DZ", "addr:street": "High Holborn", "alt_name": "Costa", "amenity": "cafe", "branch": "to Go", "brand": "Costa", "brand:wikidata": "Q608845", "brand:wikipedia": "en:Costa Coffee", "changing_table": "no", "check_date": "2025-12-07", "cuisine": "coffee_shop", "fhrs:id": "424924", "fhrs:local_authority_id": "40569", "indoor_seating": "yes", "name": "Costa", "opening_hours": "Mo-Fr 06:00-17:00; Sa,Su 06:30-16:00", "outdoor_seating": "no", "payment:cash": "yes", "takeaway": "yes", "website": "https://www.costa.co.uk/", "wheelchair": "no"}}, {"type": "node", "id": 338507461, "lat": 51.5160246, "lon": -0.1190342, "tags": {"addr:housenumber": "48", "addr:street": "Kingsway", "amenity": "cafe", "cuisine": "italian", "name": "Guido's"}}, {"type": "node", "id": 338507462, "lat": 51.516089, "lon": -0.119735, "tags": {"addr:city": "London", "addr:housenumber": "77D", "addr:postcode": "WC2B 6SR", "addr:street": "Kingsway", "amenity": "cafe", "brand": "Caff\u00e8 Nero", "brand:wikidata": "Q675808", "brand:wikipedia": "en:Caff\u00e8 Nero", "check_date": "2025-05-12", "check_date:opening_hours": "2024-08-22", "cuisine": "coffee_shop", "fhrs:id": "424716", "name": "Caff\u00e8 Nero", "opening_hours": "Mo-Fr 06:30-21:00; Sa 07:00-21:00; Su 08:00-18:00", "outdoor_seating": "yes", "source:addr": "FHRS Open Data", "takeaway": "yes", "website": "https://www.caffenero.com/uk/stores/kingsway", "wheelchair": "yes"}}, {"type": "node", "id": 338507482, "lat": 51.51825, "lon": -0.120913, "tags": {"amenity": "cafe", "name": "Espresso House", "old_name": "Pret A Manger"}}, {"type": "node", "id": 339863099, "lat": 51.5462673, "lon": -0.1011388, "tags": {"addr:city": "London", "addr:housenumber": "290", "addr:postcode": "N1 2LH", "addr:street": "St Paul's Road", "amenity": "cafe", "check_date": "2024-09-12", "email": "INFO@SAWYERANDGRAY.CO.UK", "fhrs:id": "724313", "indoor_seating": "yes", "name": "Sawyer & Gray", "opening_hours": "We-Fr 07:30-15:00; Sa 08:30-16:00; Su 09:30-16:00", "outdoor_seating": "yes", "website": "https://www.sawyerandgray.co.uk/"}}, {"type": "node", "id": 344868976, "lat": 51.4775336, "lon": -0.2104769, "tags": {"amenity": "cafe", "name": "Olive", "url": "http://www.olivecatering.com/"}}, {"type": "node", "id": 344871610, "lat": 51.4786408, "lon": -0.2113074, "tags": {"amenity": "cafe", "name": "Cafe Plum", "url": "http://www.cafeplum.com/"}}, {"type": "node", "id": 345609953, "lat": 51.4619909, "lon": -0.20692}, {"type": "node", "id": 345609955, "lat": 51.461864, "lon": -0.2069561}, {"type": "node", "id": 345609966, "lat": 51.4618527, "lon": -0.2068793}, {"type": "node", "id": 345873723, "lat": 51.4957752, "lon": -0.1152396, "tags": {"addr:housenumber": "178", "addr:street": "Lambeth Road", "amenity": "cafe", "check_date": "2025-09-18", "contact:facebook": "thecornercafee", "cuisine": "breakfast;local;burger;pie;sandwich;soup;coffee_shop", "diet:halal": "yes", "diet:vegetarian": "yes", "indoor_seating": "yes", "name": "The Corner Cafe", "outdoor_seating": "yes", "takeaway": "yes", "toilets": "yes", "wikimedia_commons": "File:The_Corner_Cafe.jpg"}}, {"type": "node", "id": 346944313, "lat": 51.4979706, "lon": -0.0812192}, {"type": "node", "id": 347294427, "lat": 51.517238, "lon": -0.0834344}, {"type": "node", "id": 347294428, "lat": 51.5172122, "lon": -0.0832782}, {"type": "node", "id": 347542399, "lat": 51.5181847, "lon": -0.0776879, "tags": {"addr:city": "London", "addr:housenumber": "16", "addr:postcode": "E1 7LJ", "addr:street": "Artillery Passage", "amenity": "cafe", "fhrs:id": "1224831", "name": "Jen Tea", "opening_hours:signed": "no", "wheelchair": "no", "wikidata": "Q27082342"}}, {"type": "node", "id": 348069431, "lat": 51.5430259, "lon": -0.1027562}, {"type": "node", "id": 348069434, "lat": 51.5431387, "lon": -0.1027784}, {"type": "node", "id": 348069441, "lat": 51.5431437, "lon": -0.1027119}, {"type": "node", "id": 348069444, "lat": 51.5430309, "lon": -0.1026897}, {"type": "node", "id": 348310319, "lat": 51.5398018, "lon": -0.1022652, "tags": {"addr:city": "London", "addr:housenumber": "286", "addr:postcode": "N1 2TZ", "addr:street": "Upper Street", "amenity": "cafe", "contact:instagram": "highgroundn1", "cuisine": "coffee_shop", "name": "High Ground"}}, {"type": "node", "id": 348440962, "lat": 51.5357114, "lon": -0.104013}, {"type": "node", "id": 348440968, "lat": 51.5357588, "lon": -0.1041633}, {"type": "node", "id": 348605977, "lat": 51.5357239, "lon": -0.1041839}, {"type": "node", "id": 348605980, "lat": 51.53568, "lon": -0.1040307}, {"type": "node", "id": 348713877, "lat": 51.5343649, "lon": -0.1054575, "tags": {"amenity": "cafe", "check_date": "2025-10-14", "cuisine": "tea", "name": "Tea For u"}}, {"type": "node", "id": 348713913, "lat": 51.5344524, "lon": -0.1053506, "tags": {"amenity": "cafe", "brand": "Ding Tea", "brand:wikidata": "Q112123475", "check_date": "2025-10-14", "cuisine": "bubble_tea", "name": "Ding Tea", "name:en": "Ding Tea", "name:zh": "\u85a1\u8336", "takeaway": "yes"}}, {"type": "node", "id": 348871686, "lat": 51.5114642, "lon": -0.1327974, "tags": {"addr:housenumber": "50", "addr:street": "Shaftesbury Avenue", "amenity": "cafe", "check_date": "2025-01-30", "cuisine": "italian", "indoor_seating": "yes", "name": "Caff\u00e8 Concerto", "note": "spelling is correct according to its website", "opening_hours": "07:30-23:00", "outdoor_seating": "yes", "phone": "+44 20 7494 6853", "website": "https://www.caffeconcerto.co.uk/restaurant/shaftesbury-avenue.html"}}, {"type": "node", "id": 349077402, "lat": 51.5392296, "lon": -0.1025223}, {"type": "node", "id": 349077409, "lat": 51.5392185, "lon": -0.1026682}, {"type": "node", "id": 349077444, "lat": 51.5392644, "lon": -0.1026772}, {"type": "node", "id": 349077445, "lat": 51.5392755, "lon": -0.1025313}, {"type": "node", "id": 351781117, "lat": 51.5123522, "lon": -0.121654}, {"type": "node", "id": 352925484, "lat": 51.5181457, "lon": -0.0895894}, {"type": "node", "id": 352929724, "lat": 51.5020946, "lon": -0.0879877}, {"type": "node", "id": 352933507, "lat": 51.5395529, "lon": -0.1018052, "tags": {"addr:city": "London", "addr:housenumber": "58", "addr:street": "Cross Street", "amenity": "cafe", "name": "Chameleon"}}, {"type": "node", "id": 354670708, "lat": 51.5159372, "lon": -0.1174858}, {"type": "node", "id": 354670710, "lat": 51.5160372, "lon": -0.1170818}, {"type": "node", "id": 354670711, "lat": 51.5159672, "lon": -0.1170371}, {"type": "node", "id": 354670712, "lat": 51.5158673, "lon": -0.1174411}, {"type": "node", "id": 357139767, "lat": 51.4641179, "lon": -0.2161338}, {"type": "node", "id": 357595156, "lat": 51.5392594, "lon": -0.1065473}, {"type": "node", "id": 357595160, "lat": 51.5392305, "lon": -0.1063386}, {"type": "node", "id": 357595161, "lat": 51.5392079, "lon": -0.1065658}, {"type": "node", "id": 357595165, "lat": 51.539179, "lon": -0.106357}, {"type": "node", "id": 360309846, "lat": 51.5465873, "lon": -0.1042104, "tags": {"addr:city": "London", "addr:housenumber": "25-27", "addr:postcode": "N5 1RA", "addr:street": "Highbury Corner", "addr:suburb": "Islington", "amenity": "cafe", "fhrs:id": "1080364", "name": "Temptations", "source:addr": "FHRS Open Data", "wheelchair": "no"}}, {"type": "node", "id": 364346131, "lat": 51.4619768, "lon": -0.2068337}, {"type": "node", "id": 364548403, "lat": 51.5462478, "lon": -0.1023635, "tags": {"amenity": "cafe", "check_date": "2025-12-15", "indoor_seating": "yes", "name": "314", "outdoor_seating": "yes"}}, {"type": "node", "id": 364783971, "lat": 51.5459051, "lon": -0.1019576, "tags": {"addr:city": "London", "addr:floor": "0", "addr:housenumber": "154", "addr:postcode": "N1 2UP", "addr:street": "Canonbury Road", "amenity": "cafe", "fhrs:id": "1279207", "indoor_seating": "yes", "name": "Cafe Vertige", "outdoor_seating": "yes"}}, {"type": "node", "id": 364783976, "lat": 51.5460255, "lon": -0.1016413, "tags": {"amenity": "cafe", "indoor_seating": "yes", "name": "Urban Caf\u00e9 and Bistro", "outdoor_seating": "yes"}}, {"type": "node", "id": 369119283, "lat": 51.5147588, "lon": -0.0790785, "tags": {"amenity": "cafe", "check_date": "2025-06-17", "name": "Chaplins Deli", "payment:cash": "yes", "payment:credit_cards": "yes", "payment:debit_cards": "yes", "source": "Local knowledge", "wheelchair": "limited"}}, {"type": "node", "id": 369119290, "lat": 51.5139685, "lon": -0.0789559}, {"type": "node", "id": 369857026, "lat": 51.5414956, "lon": -0.1169582}, {"type": "node", "id": 369857027, "lat": 51.5415424, "lon": -0.1169651}, {"type": "node", "id": 369857028, "lat": 51.5415611, "lon": -0.1168144}, {"type": "node", "id": 369857029, "lat": 51.5415103, "lon": -0.1166937}, {"type": "node", "id": 369857031, "lat": 51.5415802, "lon": -0.1167425}, {"type": "node", "id": 369857047, "lat": 51.5406612, "lon": -0.1168457}, {"type": "node", "id": 369857053, "lat": 51.5406741, "lon": -0.1166803}, {"type": "node", "id": 369857098, "lat": 51.5409613, "lon": -0.1172199}, {"type": "node", "id": 369857103, "lat": 51.5410123, "lon": -0.1172283}, {"type": "node", "id": 371050202, "lat": 51.5149955, "lon": -0.1240197, "tags": {"amenity": "cafe", "name": "The Poetry Cafe"}}, {"type": "node", "id": 372519553, "lat": 51.5134023, "lon": -0.1312004, "tags": {"addr:city": "London", "addr:housenumber": "22", "addr:postcode": "W1D 4RP", "addr:street": "Frith Street", "amenity": "cafe", "check_date": "2025-06-13", "fhrs:confidence_management": "5", "fhrs:hygiene": "0", "fhrs:id": "413657", "fhrs:local_authority_id": "01333/0022/0/001", "fhrs:rating": "5", "fhrs:structural": "5", "name": "Bar Italia", "opening_hours": "24/7", "source:addr": "FSA Food Hygiene Ratings Database", "source:postcode": "FSA Food Hygiene Ratings Database", "website": "http://www.baritaliasoho.co.uk"}}, {"type": "node", "id": 373396705, "lat": 51.5148006, "lon": -0.0967864}, {"type": "node", "id": 373396709, "lat": 51.5147477, "lon": -0.0966079}, {"type": "node", "id": 373396712, "lat": 51.5147198, "lon": -0.0964815}, {"type": "node", "id": 373575478, "lat": 51.5163647, "lon": -0.0965504}, {"type": "node", "id": 373608859, "lat": 51.5146298, "lon": -0.0987655}, {"type": "node", "id": 375932238, "lat": 51.5171359, "lon": -0.1238864}, {"type": "node", "id": 379033843, "lat": 51.5261978, "lon": -0.0879786, "tags": {"amenity": "cafe", "brand": "Starbucks", "brand:wikidata": "Q37158", "brand:wikipedia": "en:Starbucks", "cuisine": "coffee_shop", "indoor_seating": "yes", "name": "Starbucks", "official_name": "Starbucks Coffee", "outdoor_seating": "no", "source": "survey", "takeaway": "yes", "website": "https://www.starbucks.com/store-locator/store/2417/old-street-city-road-104-122-city-road-london-eng-ec-1-v-2-nr-gb", "wheelchair": "yes"}}, {"type": "node", "id": 379822516, "lat": 51.476668, "lon": -0.13046, "tags": {"addr:city": "London", "addr:housenumber": "178", "addr:postcode": "SW8 2LA", "addr:street": "Wandsworth Road", "amenity": "cafe", "cuisine": "portuguese", "fhrs:authority": "Lambeth", "fhrs:id": "482976", "fhrs:inspectiondate": "2014-01-17", "fhrs:rating": "4", "name": "Ponto de Encontro"}}, {"type": "node", "id": 379822519, "lat": 51.476732, "lon": -0.13042, "tags": {"amenity": "cafe", "cuisine": "portuguese", "name": "Berlengas"}}, {"type": "node", "id": 379822542, "lat": 51.4746123, "lon": -0.1324402, "tags": {"addr:city": "London", "addr:housenumber": "252", "addr:postcode": "SW8 2JJ", "addr:street": "Wandsworth Road", "amenity": "cafe", "name": "Chinese Pantry"}}, {"type": "node", "id": 379822556, "lat": 51.4740661, "lon": -0.1330385, "tags": {"amenity": "cafe", "internet_access": "yes"}}, {"type": "node", "id": 379822559, "lat": 51.471749, "lon": -0.135588, "tags": {"amenity": "cafe", "cuisine": "portuguese", "name": "Os Golfinhos"}}, {"type": "node", "id": 379822581, "lat": 51.4706364, "lon": -0.1382787, "tags": {"amenity": "cafe", "name": "Solneve Cafe"}}, {"type": "node", "id": 379822583, "lat": 51.4708182, "lon": -0.1382967, "tags": {"amenity": "cafe", "name": "Savoy Cafe"}}, {"type": "node", "id": 379822588, "lat": 51.4704996, "lon": -0.1390395, "tags": {"addr:city": "London", "addr:housenumber": "394B", "addr:postcode": "SW8 4PH", "addr:street": "Wandsworth Road", "amenity": "cafe", "check_date": "2024-09-01", "fhrs:authority": "Lambeth", "fhrs:id": "484670", "fhrs:inspectiondate": "2013-03-18", "fhrs:rating": "3", "name": "Uncle Tom's Cabin"}}, {"type": "node", "id": 382185026, "lat": 51.5135672, "lon": -0.1348154}, {"type": "node", "id": 382512989, "lat": 51.5152192, "lon": -0.1352294}, {"type": "node", "id": 384525161, "lat": 51.5224191, "lon": -0.11431}, {"type": "node", "id": 384525164, "lat": 51.5224519, "lon": -0.1141926}, {"type": "node", "id": 384525167, "lat": 51.5224638, "lon": -0.1143442}, {"type": "node", "id": 384525170, "lat": 51.5224976, "lon": -0.1142338}, {"type": "node", "id": 385560825, "lat": 51.4980972, "lon": -0.1444736, "tags": {"amenity": "cafe", "name": "English Rose"}}, {"type": "node", "id": 385560831, "lat": 51.4990311, "lon": -0.1428822, "tags": {"addr:city": "London", "addr:country": "GB", "addr:housenumber": "4", "addr:postcode": "SW1E 5HY", "addr:street": "Palace Street", "amenity": "cafe", "fhrs:id": "413463", "name": "Le Signore"}}, {"type": "node", "id": 385560837, "lat": 51.4949639, "lon": -0.1270355, "tags": {"addr:city": "London", "addr:housenumber": "44a", "addr:postcode": "SW1P 2AF", "addr:street": "Horseferry Road", "amenity": "cafe", "atm": "no", "cuisine": "sandwich", "fhrs:id": "414429", "name": "Ravello", "opening_hours": "Mo-Fr 06:30-18:00", "outdoor_seating": "no", "takeaway": "yes", "wheelchair": "limited"}}, {"type": "node", "id": 385581979, "lat": 51.5097364, "lon": -0.1265306}, {"type": "node", "id": 385601802, "lat": 51.5268257, "lon": -0.0813643}, {"type": "node", "id": 385704235, "lat": 51.5130848, "lon": -0.1001548}, {"type": "node", "id": 388111146, "lat": 51.5252013, "lon": -0.1281271, "tags": {"addr:city": "London", "addr:housenumber": "7-12", "addr:postcode": "WC1H 9LT", "addr:street": "Tavistock Square", "amenity": "cafe", "brand": "Starbucks", "brand:wikidata": "Q37158", "brand:wikipedia": "en:Starbucks", "check_date": "2025-12-07", "cuisine": "coffee_shop", "fhrs:id": "425694", "name": "Starbucks", "not:addr:postcode": "WC1H 9LY", "official_name": "Starbucks Coffee", "opening_hours": "Mo-Fr 06:00-20:00; Sa 07:00-20:00", "source:postcode": "other businesses at this address", "takeaway": "yes", "wheelchair": "yes", "wheelchair:description": "access through ramp to offices next door"}}, {"type": "node", "id": 388116719, "lat": 51.516674, "lon": -0.129274, "tags": {"amenity": "cafe", "brand": "Starbucks", "brand:wikidata": "Q37158", "brand:wikipedia": "en:Starbucks", "check_date": "2024-09-10", "cuisine": "coffee_shop", "indoor_seating": "yes", "name": "Starbucks", "official_name": "Starbucks Coffee", "outdoor_seating": "yes", "payment:american_express": "yes", "takeaway": "yes", "website": "https://www.starbucks.com/store-locator/store/2564/new-oxford-street-112-116-new-oxford-street-london-eng-wc-1-a-1-hh-g", "wheelchair": "limited"}}, {"type": "node", "id": 389470644, "lat": 51.53813, "lon": -0.1388013}, {"type": "node", "id": 390073192, "lat": 51.5195404, "lon": -0.0935058}, {"type": "node", "id": 390157645, "lat": 51.5378239, "lon": -0.1395279}, {"type": "node", "id": 390556692, "lat": 51.5348494, "lon": -0.0986195, "tags": {"amenity": "cafe", "name": "Rheidol Rooms"}}, {"type": "node", "id": 390925520, "lat": 51.5388985, "lon": -0.1431887}, {"type": "node", "id": 401529136, "lat": 51.5128913, "lon": -0.1286937, "tags": {"amenity": "cafe", "indoor_seating": "yes", "name": "Purcha", "outdoor_seating": "no"}}, {"type": "node", "id": 401529157, "lat": 51.5143608, "lon": -0.1294674, "tags": {"addr:housenumber": "106", "addr:street": "Charing Cross Road", "amenity": "cafe", "cuisine": "sandwich", "name": "Snack Bar & Caf\u00e9", "outdoor_seating": "yes", "wheelchair": "no"}}, {"type": "node", "id": 401529164, "lat": 51.5153653, "lon": -0.129944, "tags": {"addr:city": "London", "addr:housenumber": "136", "addr:postcode": "WC2H 0LA", "addr:street": "Charing Cross Road", "amenity": "cafe", "brand": "Blank Street Coffee", "brand:wikidata": "Q114792509", "check_date": "2025-08-20", "cuisine": "coffee_shop", "name": "Blank Street Coffee", "takeaway": "yes", "type": "bags"}}, {"type": "node", "id": 418799862, "lat": 51.4898192, "lon": -0.1352027, "tags": {"amenity": "cafe", "name": "Pimlico BBQ and Cafe"}}, {"type": "node", "id": 420293965, "lat": 51.4837989, "lon": -0.0535307, "tags": {"addr:city": "London", "addr:housenumber": "217", "addr:postcode": "SE15 1NS", "addr:street": "Ilderton Road", "amenity": "cafe", "check_date": "2023-05-25", "fhrs:id": "364390", "name": "Ilderton Cafe", "source:addr": "FHRS Open Data"}}, {"type": "node", "id": 423598119, "lat": 51.4966026, "lon": -0.0883479, "tags": {"addr:city": "London", "addr:housenumber": "159A", "addr:postcode": "SE1 4GZ", "addr:street": "Great Dover Street", "amenity": "cafe", "atm": "yes", "cafe": "board_game", "description": "Gaming cafe", "fhrs:id": "1110669", "internet_access": "wlan", "name": "Bad Moon Cafe", "opening_hours": "Mo-Sa 08:00-23:00; Su 10:00-18:00", "source:addr": "FHRS Open Data", "website": "https://www.badmooncafe.co.uk/"}}, {"type": "node", "id": 425164592, "lat": 51.530747, "lon": -0.1192818, "tags": {"amenity": "cafe", "name": "Coffee-Uni"}}, {"type": "node", "id": 425720564, "lat": 51.5319837, "lon": -0.1222953, "tags": {"addr:city": "London", "addr:housenumber": "26-30", "addr:postcode": "N1 9AA", "addr:street": "York Way", "amenity": "cafe", "brand": "Costa", "brand:wikidata": "Q608845", "brand:wikipedia": "en:Costa Coffee", "check_date": "2023-02-17", "cuisine": "coffee_shop", "diet:vegetarian": "yes", "fhrs:id": "1155392", "internet_access": "wlan", "internet_access:fee": "no", "name": "Costa", "opening_hours": "07:30-16:00", "operator": "Costa Coffee", "payment:credit_cards": "yes", "payment:debit_cards": "yes", "smoking": "outside", "takeaway": "yes"}}, {"type": "node", "id": 425720647, "lat": 51.5365629, "lon": -0.1218822, "tags": {"addr:city": "London", "addr:housenumber": "130-132", "addr:postcode": "N1 0AX", "addr:street": "York Way", "addr:suburb": "Islington", "amenity": "cafe", "fhrs:id": "416914", "name": "Cafe Express", "source:addr": "FHRS Open Data"}}, {"type": "node", "id": 425720656, "lat": 51.5367306, "lon": -0.1218949, "tags": {"addr:city": "London", "addr:housenumber": "138", "addr:postcode": "N1 0AX", "addr:street": "York Way", "amenity": "cafe", "name": "Venezia Cafe"}}, {"type": "node", "id": 427539145, "lat": 51.5308959, "lon": -0.1221137, "tags": {"addr:city": "London", "addr:housenumber": "300", "addr:postcode": "N1 9NR", "addr:street": "Pentonville Road", "addr:suburb": "Islington", "amenity": "cafe", "brand": "Blank Street Coffee", "brand:wikidata": "Q114792509", "cuisine": "coffee_shop", "fhrs:id": "1680822", "indoor_seating": "yes", "level": "0", "name": "Blank Street Coffee", "outdoor_seating": "no", "source:addr": "FHRS Open Data", "takeaway": "yes"}}, {"type": "node", "id": 427571034, "lat": 51.532523, "lon": -0.1201318}, {"type": "node", "id": 427571036, "lat": 51.5325588, "lon": -0.1200829}, {"type": "node", "id": 427571064, "lat": 51.5334016, "lon": -0.1190561, "tags": {"amenity": "cafe", "name": "Sunrise Cafe"}}, {"type": "node", "id": 428964038, "lat": 51.4940844, "lon": -0.1513535, "tags": {"addr:city": "London", "addr:housenumber": "54-56", "addr:postcode": "SW1W 9PB", "amenity": "cafe", "fhrs:confidence_management": "5", "fhrs:hygiene": "10", "fhrs:id": "413630", "fhrs:local_authority_id": "01306/0054/0/001", "fhrs:rating": "4", "fhrs:structural": "5", "source:addr": "FSA Food Hygiene Ratings Database", "source:postcode": "FSA Food Hygiene Ratings Database"}}, {"type": "node", "id": 430435466, "lat": 51.529372, "lon": -0.1203346, "tags": {"addr:city": "London", "addr:housenumber": "279", "addr:postcode": "WC1X 8QF", "addr:street": "Gray's Inn Road", "amenity": "cafe", "indoor_seating": "yes", "name": "Aux Pains de Papy", "outdoor_seating": "yes", "shop": "bakery"}}, {"type": "node", "id": 430435515, "lat": 51.5296591, "lon": -0.1205585, "tags": {"addr:city": "London", "addr:housenumber": "293", "addr:postcode": "WC1X 8QF", "addr:street": "Gray's Inn Road", "amenity": "cafe", "check_date": "2025-11-20", "diet:vegan": "yes", "diet:vegetarian": "yes", "name": "Cappadocia", "name:en": "Cappadocia", "source": "Walking papers"}}, {"type": "node", "id": 430437717, "lat": 51.5302672, "lon": -0.1211104, "tags": {"addr:housenumber": "315", "amenity": "cafe", "check_date": "2025-05-22", "fhrs:id": "1784202", "level": "0", "name": "Cafe Plaka", "ref:GB:uprn": "5147766"}}, {"type": "node", "id": 442973102, "lat": 51.5026883, "lon": -0.1080315, "tags": {"addr:city": "London", "addr:housename": "Shop", "addr:housenumber": "65a-67", "addr:postcode": "SE1 8LL", "addr:street": "The Cut", "amenity": "cafe", "brand": "Caff\u00e8 Nero", "brand:wikidata": "Q675808", "brand:wikipedia": "en:Caff\u00e8 Nero", "check_date": "2023-03-02", "cuisine": "coffee_shop", "fhrs:id": "484583", "internet_access": "wlan", "name": "Caff\u00e8 Nero", "source:addr": "FHRS Open Data", "takeaway": "yes", "wheelchair": "yes"}}, {"type": "node", "id": 443029946, "lat": 51.4934413, "lon": -0.1503154, "tags": {"addr:city": "London", "addr:country": "GB", "addr:housenumber": "114", "addr:postcode": "SW1W 9QD", "addr:street": "Ebury Street", "amenity": "cafe", "check_date": "2024-09-13", "contact:facebook": "https://www.facebook.com/tomtomcoffeehouse/", "contact:instagram": "https://www.instagram.com/tomtomcoffee/", "contact:twitter": "https://twitter.com/tomtomcoffee", "contact:youtube": "https://www.youtube.com/channel/UCMO63puSyRB6_foIb9nLWPQ", "email": "coffee@tomtomcoffee.co.uk", "fhrs:id": "412104", "name": "TomTom Coffee House", "not:brand:wikidata": "Q682144", "opening_hours": "Mo-Fr 08:00-18:00; Sa,Su 09:00-18:00", "payment:cash": "no", "payment:credit_cards": "yes", "payment:debit_cards": "yes", "phone": "+44 20 7730 1771", "website": "https://www.tomtomcoffee.co.uk/coffee-house/"}}, {"type": "node", "id": 443404595, "lat": 51.4916626, "lon": -0.1580309, "tags": {"addr:city": "London", "addr:housenumber": "55", "addr:postcode": "SW3 4LY", "addr:street": "Duke of York Square", "amenity": "cafe", "cuisine": "coffee_shop", "name": "The Black Penny", "phone": "+44 20 7259 9965", "website": "https://www.theblackpenny.com/"}}, {"type": "node", "id": 443418105, "lat": 51.5320877, "lon": -0.0344133, "tags": {"addr:city": "London", "addr:housenumber": "467", "addr:postcode": "E3 5LX", "addr:street": "Roman Road", "amenity": "cafe", "cuisine": "coffee_shop", "fhrs:id": "913720", "fhrs:local_authority_id": "196509", "level": "0", "name": "Hiland", "website": "http://hilandcoffee.co.uk/"}}, {"type": "node", "id": 445685420, "lat": 51.4909415, "lon": -0.1613428, "tags": {"addr:city": "London", "addr:housenumber": "82", "addr:postcode": "SW3 4TZ", "addr:street": "King\u2019s Road", "amenity": "cafe", "cuisine": "coffee_shop", "name": "Coffee by Real Eating Co", "operator": "Eat", "phone": "+44 20 8194 4424", "website": "https://www.real-eating.co.uk/locations/kings-road-london/"}}, {"type": "node", "id": 447871114, "lat": 51.5179303, "lon": -0.1253825}, {"type": "node", "id": 452149625, "lat": 51.5142471, "lon": -0.1596019, "tags": {"addr:city": "London", "addr:housenumber": "15", "addr:postcode": "W1H 7AS", "addr:street": "Great Cumberland Place", "amenity": "cafe", "check_date": "2024-04-03", "cuisine": "coffee_shop", "fhrs:confidence_management": "0", "fhrs:hygiene": "0", "fhrs:id": "414765", "fhrs:local_authority_id": "11/00155/COMM", "fhrs:rating": "5", "fhrs:structural": "5", "name": "Coffee by Real Eating Co", "source:addr": "FSA Food Hygiene Ratings Database", "source:postcode": "FSA Food Hygiene Ratings Database", "takeaway": "yes"}}, {"type": "node", "id": 452235961, "lat": 51.5124102, "lon": -0.1438591}, {"type": "node", "id": 454583939, "lat": 51.5477324, "lon": -0.1450387}, {"type": "node", "id": 455528094, "lat": 51.547686, "lon": -0.1450087}, {"type": "node", "id": 455528095, "lat": 51.5477548, "lon": -0.1448355}, {"type": "node", "id": 455528097, "lat": 51.5478332, "lon": -0.1447878}, {"type": "node", "id": 456213965, "lat": 51.5102976, "lon": -0.1391473, "tags": {"addr:city": "London", "addr:housenumber": "6A", "addr:postcode": "W1S 3HF", "addr:street": "Vigo Street", "amenity": "cafe", "brand": "Starbucks", "brand:wikidata": "Q37158", "brand:wikipedia": "en:Starbucks", "check_date": "2023-08-13", "cuisine": "coffee_shop", "fhrs:id": "780871", "name": "Starbucks", "official_name": "Starbucks Coffee", "opening_hours": "Mo-Fr 07:00-20:00; Sa 07:30-20:30,09:00-20:00", "operator": "Starbucks", "payment:american_express": "yes", "takeaway": "yes"}}, {"type": "node", "id": 456277408, "lat": 51.5106844, "lon": -0.1421362, "tags": {"addr:city": "London", "addr:housenumber": "15B", "addr:postcode": "W1S 4JZ", "addr:street": "Clifford Street", "amenity": "cafe", "cuisine": "sandwich", "fhrs:id": "412397", "name": "Morris\u2019s", "phone": "+44 20 7734 6930"}}, {"type": "node", "id": 456718344, "lat": 51.5112419, "lon": -0.1413145, "tags": {"addr:city": "London", "addr:housenumber": "14", "addr:postcode": "W1S 2JR", "addr:street": "Old Burlington Street", "amenity": "cafe", "contact:instagram": "nkoracoffee", "fhrs:id": "1526581", "name": "Nkora", "opening_hours": "Mo-Fr 07:00-18:30; Sa 07:00-18:00; Su 08:00-16:00", "phone": "+44 20 7734 6177", "website": "http://nkora.co.uk"}}, {"type": "node", "id": 462025210, "lat": 51.5133351, "lon": -0.1501507, "tags": {"addr:housenumber": "18-20", "addr:street": "Weighhouse Street", "amenity": "cafe", "name": "Deliciously Ella", "website": "https://deliciouslyella.com/our-delis/weighhouse-street/"}}, {"type": "node", "id": 462025228, "lat": 51.5141232, "lon": -0.1508143}, {"type": "node", "id": 462025234, "lat": 51.5130973, "lon": -0.1506616, "tags": {"addr:city": "London", "addr:housenumber": "79", "addr:postcode": "W1K 5AS", "addr:street": "Duke Street", "amenity": "cafe", "check_date": "2025-10-12", "cuisine": "coffee_shop", "dog": "yes", "fhrs:id": "411412", "indoor_seating": "yes", "level": "0;-1", "name": "H.R. Higgins (Coffee-man) Ltd.", "operator": "H.R. Higgins (Coffee-Man) Ltd.", "outdoor_seating": "no", "payment:cash": "no", "payment:credit_cards": "yes", "payment:debit_cards": "yes", "phone": "+44 20 7629 3913", "takeaway": "yes", "website": "https://www.hrhiggins.co.uk/", "wheelchair": "limited"}}, {"type": "node", "id": 462025325, "lat": 51.5134705, "lon": -0.1535236}, {"type": "node", "id": 470362541, "lat": 51.5051285, "lon": -0.0221906, "tags": {"addr:city": "London", "addr:housename": "Cabot Place", "addr:housenumber": "15", "addr:postcode": "E14 4QT", "addr:street": "Cabot Square", "addr:unit": "Unit 12", "amenity": "cafe", "fhrs:id": "150573", "level": "1", "level:ref": "0", "name": "Brera", "operator": "Cafe Brera Ltd", "source:addr": "FHRS Open Data", "wheelchair": "yes"}}, {"type": "node", "id": 471260317, "lat": 51.5189795, "lon": -0.077001}, {"type": "node", "id": 471260318, "lat": 51.5189497, "lon": -0.0770083}, {"type": "node", "id": 471260319, "lat": 51.5189873, "lon": -0.0768774}, {"type": "node", "id": 471260320, "lat": 51.5189365, "lon": -0.0768875}, {"type": "node", "id": 471260327, "lat": 51.5190012, "lon": -0.0765943}, {"type": "node", "id": 471260329, "lat": 51.5190114, "lon": -0.0763589}, {"type": "node", "id": 471260330, "lat": 51.5189468, "lon": -0.0763751}, {"type": "node", "id": 471363241, "lat": 51.5164777, "lon": -0.0716381}, {"type": "node", "id": 471488492, "lat": 51.5117851, "lon": -0.0820271, "tags": {"addr:city": "London", "addr:postcode": "EC3M 7JJ", "addr:street": "Cullum Street", "amenity": "cafe", "cuisine": "sandwich", "name": "Claudio's"}}, {"type": "node", "id": 472663741, "lat": 51.5129814, "lon": -0.1560993, "tags": {"addr:housenumber": "115c", "addr:street": "North Row", "amenity": "cafe", "name": "Cardinals of Mayfair"}}, {"type": "node", "id": 473484580, "lat": 51.5001761, "lon": -0.0893173, "tags": {"addr:city": "London", "addr:housenumber": "14-16", "addr:postcode": "SE1 4LL", "addr:street": "Pilgrimage Street", "amenity": "cafe", "facebook": "https://www.facebook.com/pages/Workman-Cafe/2357464567829334", "fhrs:id": "1267910", "name": "Workman Cafe", "outdoor_seating": "yes"}}, {"type": "node", "id": 474360834, "lat": 51.495317, "lon": -0.0770437, "tags": {"amenity": "cafe", "name": "Best of Bermondsey"}}, {"type": "node", "id": 474360835, "lat": 51.4959452, "lon": -0.0788668, "tags": {"amenity": "cafe", "name": "Embassy Cafe"}}, {"type": "node", "id": 474360836, "lat": 51.4965369, "lon": -0.0806743, "tags": {"amenity": "cafe", "name": "Tas-Ty Snacks"}}, {"type": "node", "id": 475381384, "lat": 51.5172487, "lon": -0.0665909, "tags": {"addr:city": "London", "addr:housenumber": "36", "addr:postcode": "E1 1JX", "addr:street": "Whitechapel Road", "amenity": "cafe", "fhrs:id": "66755", "name": "Casablanca Cafe / Alauddin Sweets", "phone": "+44 20 7377 1441"}}, {"type": "node", "id": 475870035, "lat": 51.5201171, "lon": -0.1051862}, {"type": "node", "id": 479151676, "lat": 51.514576, "lon": -0.0985802}, {"type": "node", "id": 482835015, "lat": 51.4898338, "lon": -0.0964813, "tags": {"addr:city": "London", "addr:housenumber": "189", "addr:postcode": "SE17 1RW", "addr:street": "Walworth Road", "amenity": "cafe", "check_date": "2023-09-12", "fhrs:id": "1026975", "name": "Cafe House", "source:addr": "FHRS Open Data", "wheelchair": "no"}}, {"type": "node", "id": 482835046, "lat": 51.4863772, "lon": -0.094763, "tags": {"addr:city": "London", "addr:housenumber": "314", "addr:postcode": "SE17 2NA", "addr:street": "Walworth Road", "amenity": "cafe", "check_date": "2019-10-06", "fhrs:id": "903045", "name": "Ranya Cafe", "opening_hours": "Mo-Su 07:00-20:00", "source:addr": "FHRS Open Data"}}, {"type": "node", "id": 484618786, "lat": 51.525326, "lon": -0.1099599}, {"type": "node", "id": 494923305, "lat": 51.51997, "lon": -0.1306368}, {"type": "node", "id": 496471919, "lat": 51.5190091, "lon": -0.1421165}, {"type": "node", "id": 496471929, "lat": 51.5200148, "lon": -0.1425752}, {"type": "node", "id": 496471931, "lat": 51.520041, "lon": -0.1424267}, {"type": "node", "id": 496471937, "lat": 51.5200727, "lon": -0.1425989}, {"type": "node", "id": 496702563, "lat": 51.5180746, "lon": -0.1393612}, {"type": "node", "id": 496702573, "lat": 51.5182804, "lon": -0.1403442}, {"type": "node", "id": 496702580, "lat": 51.518312, "lon": -0.1401768}, {"type": "node", "id": 497185846, "lat": 51.5223524, "lon": -0.1358175}, {"type": "node", "id": 497233180, "lat": 51.5144294, "lon": -0.1426422}, {"type": "node", "id": 498252480, "lat": 51.5233099, "lon": -0.13712}, {"type": "node", "id": 498848051, "lat": 51.5143076, "lon": -0.1341715}, {"type": "node", "id": 498848066, "lat": 51.5142127, "lon": -0.1341039}, {"type": "node", "id": 506314233, "lat": 51.4856774, "lon": -0.1235909, "tags": {"addr:city": "London", "addr:housenumber": "2", "addr:postcode": "SW8 1SP", "addr:street": "South Lambeth Place", "air_conditioning": "yes", "amenity": "cafe", "brand": "Starbucks", "brand:wikidata": "Q37158", "brand:wikipedia": "en:Starbucks", "check_date": "2024-04-04", "cuisine": "coffee_shop", "fhrs:authority": "Lambeth", "fhrs:id": "483381", "fhrs:inspectiondate": "2013-11-07", "fhrs:rating": "5", "level": "0", "name": "Starbucks", "official_name": "Starbucks Coffee", "payment:american_express": "yes", "takeaway": "yes", "website": "https://www.starbucks.com/store-locator/store/3099/vauxhall-lambeth-road-2-south-lambeth-road-vauxhall-london-eng-sw-8-1-sp"}}, {"type": "node", "id": 506572408, "lat": 51.5377299, "lon": -0.0996641, "tags": {"addr:housenumber": "58", "addr:street": "Essex Road", "amenity": "cafe", "indoor_seating": "yes", "outdoor_seating": "yes"}}, {"type": "node", "id": 506664965, "lat": 51.4932526, "lon": -0.2237089, "tags": {"addr:city": "London", "addr:housenumber": "6", "addr:postcode": "W6 7AL", "addr:street": "Hammersmith Broadway", "addr:suburb": "Hammersmith", "amenity": "cafe", "brand": "Caff\u00e8 Nero", "brand:wikidata": "Q675808", "check_date": "2024-08-22", "check_date:opening_hours": "2024-08-22", "cuisine": "coffee_shop", "fhrs:id": "346250", "fhrs:local_authority_id": "2008/00225/COMB", "internet_access": "wlan", "name": "Caff\u00e8 Nero", "opening_hours": "Mo-Fr 06:30-18:30; Sa 07:30-18:00; Su 08:30-18:00", "ref": "398", "takeaway": "yes", "website": "https://www.caffenero.com/uk/stores/hammersmith-broadway", "wheelchair": "yes"}}, {"type": "node", "id": 510785414, "lat": 51.5218751, "lon": -0.1199724, "tags": {"addr:city": "London", "addr:housenumber": "31-35", "addr:postcode": "WC1N 3HZ", "addr:street": "Great Ormond Street", "amenity": "cafe", "check_date": "2025-08-06", "name": "The Espresso Room", "website": "https://www.theespressoroom.co.uk/", "wheelchair": "no"}}, {"type": "node", "id": 510907367, "lat": 51.5150674, "lon": -0.1940465, "tags": {"addr:city": "London", "addr:housenumber": "113", "addr:postcode": "W2 4UP", "addr:street": "Westbourne Grove", "amenity": "cafe", "brand": "Caff\u00e8 Nero", "brand:wikidata": "Q675808", "brand:wikipedia": "en:Caff\u00e8 Nero", "check_date": "2024-08-22", "cuisine": "coffee_shop", "fhrs:id": "412280", "name": "Caff\u00e8 Nero", "opening_hours": "Mo-Fr 06:00-18:00; Sa 06:30-17:00; Su 07:00-18:00", "source:addr": "FHRS Open Data", "takeaway": "yes", "website": "https://www.caffenero.com/uk/stores/westbourne-grove"}}, {"type": "node", "id": 512765251, "lat": 51.4742691, "lon": -0.1047764}, {"type": "node", "id": 512765252, "lat": 51.4743267, "lon": -0.1046828}, {"type": "node", "id": 512765253, "lat": 51.4742854, "lon": -0.1046173}, {"type": "node", "id": 512765254, "lat": 51.4742278, "lon": -0.1047109}, {"type": "node", "id": 513785456, "lat": 51.5158815, "lon": -0.1638511, "tags": {"amenity": "cafe", "brand": "Costa", "brand:wikidata": "Q608845", "brand:wikipedia": "en:Costa Coffee", "cuisine": "coffee_shop", "name": "Costa", "takeaway": "yes", "wheelchair": "yes"}}, {"type": "node", "id": 517680792, "lat": 51.5144701, "lon": -0.1622973}, {"type": "node", "id": 520042636, "lat": 51.517117, "lon": -0.0754741}, {"type": "node", "id": 521689993, "lat": 51.519404, "lon": -0.179658}, {"type": "node", "id": 521689995, "lat": 51.5194285, "lon": -0.1796523}, {"type": "node", "id": 521690009, "lat": 51.5194173, "lon": -0.1794994}, {"type": "node", "id": 521690011, "lat": 51.5194042, "lon": -0.1795487}, {"type": "node", "id": 521690013, "lat": 51.5194009, "lon": -0.1796055}, {"type": "node", "id": 521690026, "lat": 51.5194734, "lon": -0.1796116}, {"type": "node", "id": 521690027, "lat": 51.519504, "lon": -0.1795247}, {"type": "node", "id": 521690036, "lat": 51.5194824, "lon": -0.1793852}, {"type": "node", "id": 529722121, "lat": 51.5200442, "lon": -0.1050046}, {"type": "node", "id": 530815273, "lat": 51.4681688, "lon": -0.212478}, {"type": "node", "id": 530815658, "lat": 51.4694002, "lon": -0.2095248, "tags": {"amenity": "cafe", "name": "VV Cafe"}}, {"type": "node", "id": 530980388, "lat": 51.5233067, "lon": -0.1078106}, {"type": "node", "id": 530980389, "lat": 51.523249, "lon": -0.1079754}, {"type": "node", "id": 534671858, "lat": 51.511682, "lon": -0.1875856, "tags": {"addr:housenumber": "47-49", "addr:street": "Queensway", "amenity": "cafe", "brand": "Starbucks", "brand:wikidata": "Q37158", "brand:wikipedia": "en:Starbucks", "cuisine": "coffee_shop", "name": "Starbucks", "official_name": "Starbucks Coffee", "takeaway": "yes", "wheelchair": "no"}}, {"type": "node", "id": 534907516, "lat": 51.5149324, "lon": -0.0977564, "tags": {"addr:city": "London", "addr:housenumber": "30", "addr:postcode": "EC1A 7HL", "addr:street": "Newgate Street", "amenity": "cafe", "brand": "Caff\u00e8 Nero", "brand:wikidata": "Q675808", "brand:wikipedia": "en:Caff\u00e8 Nero", "check_date": "2024-10-26", "check_date:diet:halal": "2024-10-26", "check_date:diet:kosher": "2024-10-26", "check_date:diet:vegetarian": "2024-10-26", "check_date:opening_hours": "2024-08-22", "cuisine": "coffee_shop", "diet:halal": "no", "diet:kosher": "no", "diet:vegetarian": "no", "fhrs:id": "295232", "fhrs:local_authority_id": "PI/000102190", "name": "Caff\u00e8 Nero", "opening_hours": "Mo-Fr 06:00-19:30; Sa 06:30-20:00; Su 07:00-20:00", "source:addr": "FHRS Open Data", "takeaway": "yes", "website": "https://www.caffenero.com/uk/stores/paternoster-sq", "wheelchair": "yes"}}, {"type": "node", "id": 534964186, "lat": 51.506748, "lon": -0.0906, "tags": {"addr:city": "London", "addr:housenumber": "3", "addr:postcode": "SE1 9DE", "addr:street": "Cathedral Street", "amenity": "cafe", "brand": "Caff\u00e8 Nero", "brand:wikidata": "Q675808", "brand:wikipedia": "en:Caff\u00e8 Nero", "check_date": "2024-08-22", "check_date:opening_hours": "2024-08-22", "cuisine": "coffee_shop", "fhrs:id": "362844", "indoor_seating": "yes", "name": "Caff\u00e8 Nero", "opening_hours": "Mo-Fr 06:30-20:30; Sa-Su 07:30-21:00", "outdoor_seating": "yes", "takeaway": "yes", "toilets": "customers", "website": "https://www.caffenero.com/uk/stores/golden-hind", "wheelchair": "limited", "wheelchair:description": "Steps at main entrance, and steps inside to serving counters from step-free area. WC access not checked today"}}, {"type": "node", "id": 534973107, "lat": 51.5038414, "lon": -0.0951224, "tags": {"amenity": "cafe", "name": "Damascan Kitchen"}}, {"type": "node", "id": 534993861, "lat": 51.5155998, "lon": -0.1232906}, {"type": "node", "id": 538082755, "lat": 51.5197955, "lon": -0.107146}, {"type": "node", "id": 538083347, "lat": 51.519819, "lon": -0.1069608}, {"type": "node", "id": 538083624, "lat": 51.5195248, "lon": -0.1072401}, {"type": "node", "id": 540457290, "lat": 51.5122368, "lon": -0.1200571}, {"type": "node", "id": 544456208, "lat": 51.5011196, "lon": -0.1246162, "tags": {"addr:city": "London", "addr:housename": "Portcullis House", "addr:housenumber": "70", "addr:postcode": "SW1A 2JH", "addr:street": "Bridge Street", "addr:unit": "Unit B", "amenity": "cafe", "brand": "Caff\u00e8 Nero", "brand:wikidata": "Q675808", "brand:wikipedia": "en:Caff\u00e8 Nero", "check_date": "2025-08-27", "cuisine": "coffee_shop", "fhrs:id": "427906", "internet_access": "wlan", "name": "Caff\u00e8 Nero", "name:fa": "\u06a9\u0627\u0641\u0647 \u0646\u0631\u0648", "opening_hours": "Mo-Fr 06:00-21:30; Sa 7:00-9:30; Su 7:30-21:00", "phone": "+44 20 7925 0781", "source:addr": "FSA Food Hygiene Ratings Database", "source:postcode": "FSA Food Hygiene Ratings Database", "takeaway": "yes", "website": "https://www.caffenero.com/uk/stores/portcullis-house"}}, {"type": "node", "id": 544460891, "lat": 51.5020386, "lon": -0.1178012, "tags": {"addr:city": "London", "addr:housenumber": "3C-3D", "addr:postcode": "SE1 7GQ", "addr:street": "Belvedere Road", "amenity": "cafe", "brand": "Starbucks", "brand:wikidata": "Q37158", "brand:wikipedia": "en:Starbucks", "cuisine": "coffee_shop", "diet:vegetarian": "yes", "fhrs:id": "902837", "indoor_seating": "yes", "name": "Starbucks", "official_name": "Starbucks Coffee", "opening_hours": "Mo-Fr 06:30-21:30; Sa 07:30-21:30; Su 07:30-21:00", "outdoor_seating": "yes", "payment:american_express": "yes", "phone": "+44 20 7928 4557", "source:addr": "FHRS Open Data", "takeaway": "yes", "wheelchair": "yes", "wheelchair:description": "Step-free to end of arcade and entrance from paved open space leading to York Road"}}, {"type": "node", "id": 544504153, "lat": 51.4973961, "lon": -0.1035181, "tags": {"amenity": "cafe", "name": "Art Cafe", "name:fa": "\u0627\u0631\u062a \u06a9\u0627\u0641\u06cc"}}, {"type": "node", "id": 544505607, "lat": 51.5112442, "lon": -0.1189512}, {"type": "node", "id": 548220279, "lat": 51.5387596, "lon": -0.0985437, "tags": {"amenity": "cafe"}}, {"type": "node", "id": 549122998, "lat": 51.5193252, "lon": -0.1075476, "tags": {"amenity": "cafe", "name": "La Forchetta"}}, {"type": "node", "id": 549151839, "lat": 51.5195151, "lon": -0.1073074}, {"type": "node", "id": 549171171, "lat": 51.5198485, "lon": -0.1071526, "tags": {"amenity": "cafe", "name": "Bicafe"}}, {"type": "node", "id": 554974745, "lat": 51.52996, "lon": -0.1244199, "tags": {"amenity": "cafe", "brand": "Costa", "brand:wikidata": "Q608845", "brand:wikipedia": "en:Costa Coffee", "check_date": "2025-02-21", "cuisine": "coffee_shop", "name": "Costa", "opening_hours": "Mo-Fr 06:00-21:00, Sa,Su 07:00-20:00", "payment:lightning": "yes", "takeaway": "yes", "wheelchair": "limited"}}, {"type": "node", "id": 558809528, "lat": 51.5058214, "lon": -0.0991682}, {"type": "node", "id": 559520875, "lat": 51.5072772, "lon": -0.1283651, "tags": {"addr:city": "London", "addr:housename": "Serck House", "addr:housenumber": "60-61", "addr:postcode": "WC2N 5DS", "addr:street": "Trafalgar Square", "air_conditioning": "yes", "amenity": "cafe", "brand": "Caff\u00e8 Nero", "brand:wikidata": "Q675808", "brand:wikipedia": "en:Caff\u00e8 Nero", "check_date": "2025-08-20", "check_date:diet:vegan": "2024-10-02", "check_date:diet:vegetarian": "2024-10-02", "check_date:opening_hours": "2024-08-22", "check_date:smoking": "2024-10-02", "cuisine": "coffee_shop", "diet:vegan": "yes", "diet:vegetarian": "yes", "fhrs:id": "411203", "indoor_seating": "yes", "level": "0", "name": "Caff\u00e8 Nero", "name:ja": "\u30ab\u30d5\u30a7\u30fb\u30cd\u30ed", "opening_hours": "Mo-Fr 06:30-21:00; Sa 07:00-21:00; Su 07:30-20:00", "outdoor_seating": "no", "payment:american_express": "yes", "payment:cash": "yes", "payment:contactless": "yes", "payment:credit_cards": "yes", "smoking": "no", "source:addr": "FHRS Open Data", "takeaway": "yes", "website": "https://www.caffenero.com/uk/stores/trafalgar-sq", "wheelchair": "no"}}, {"type": "node", "id": 560978509, "lat": 51.5257569, "lon": -0.0996116}, {"type": "node", "id": 560978521, "lat": 51.5257078, "lon": -0.0993718}, {"type": "node", "id": 563200150, "lat": 51.5158451, "lon": -0.1762672, "tags": {"amenity": "cafe", "brand": "Starbucks", "brand:wikidata": "Q37158", "brand:wikipedia": "en:Starbucks", "cuisine": "coffee_shop", "diet:vegan": "yes", "diet:vegetarian": "yes", "internet_access": "wlan", "internet_access:fee": "no", "level": "0", "name": "Starbucks", "official_name": "Starbucks Coffee", "seating": "indoor", "smoking": "no", "takeaway": "yes", "wheelchair": "yes"}}, {"type": "node", "id": 565207343, "lat": 51.5230165, "lon": -0.078301}, {"type": "node", "id": 565207346, "lat": 51.522803, "lon": -0.0779594}, {"type": "node", "id": 565207356, "lat": 51.5228674, "lon": -0.0780622}, {"type": "node", "id": 565470131, "lat": 51.5136314, "lon": -0.1300077}, {"type": "node", "id": 565470140, "lat": 51.512986, "lon": -0.131919}, {"type": "node", "id": 567822684, "lat": 51.5165862, "lon": -0.1767977, "tags": {"amenity": "cafe", "description": "Freshly made pastries, sandwiches, rolls, baguettes and cakes, tea, coffee, juices and cold drinks.", "level": "-1", "name": "Panopolis", "smoking": "no", "wheelchair": "yes"}}, {"type": "node", "id": 568541033, "lat": 51.5072579, "lon": -0.1228872, "tags": {"addr:city": "London", "amenity": "cafe", "brand": "Costa", "brand:wikidata": "Q608845", "brand:wikipedia": "en:Costa Coffee", "cuisine": "coffee_shop", "name": "Costa", "outdoor_seating": "yes", "takeaway": "yes", "wheelchair": "yes"}}, {"type": "node", "id": 568542316, "lat": 51.507051, "lon": -0.122338, "tags": {"amenity": "cafe", "brand": "Starbucks", "brand:wikidata": "Q37158", "brand:wikipedia": "en:Starbucks", "cuisine": "coffee_shop", "name": "Starbucks", "official_name": "Starbucks Coffee", "payment:american_express": "yes", "takeaway": "yes"}}, {"type": "node", "id": 571287544, "lat": 51.517311, "lon": -0.0834077}, {"type": "node", "id": 573320904, "lat": 51.5082148, "lon": -0.1245247, "tags": {"addr:city": "London", "addr:housename": "Charing Cross Station", "addr:postcode": "WC2N 5HS", "addr:suburb": "Strand", "addr:unit": "4", "air_conditioning": "no", "amenity": "cafe", "bar": "no", "changing_table": "no", "check_date": "2024-09-18", "cuisine": "pie", "diet:vegan": "yes", "diet:vegetarian": "yes", "drive_through": "no", "fhrs:id": "428156", "highchair": "no", "level": "0", "name": "The Pasty Shop", "outdoor_seating": "no", "payment:american_express": "yes", "reservation": "no", "smoking": "no", "source": "Network Rail", "source:addr": "FHRS Open Data", "takeaway": "only", "toilets": "no", "toilets:menstrual_products": "no", "toilets:wheelchair": "no", "wheelchair": "yes"}}, {"type": "node", "id": 573320919, "lat": 51.5080331, "lon": -0.1252987, "tags": {"amenity": "cafe", "brand": "Costa", "brand:wikidata": "Q608845", "brand:wikipedia": "en:Costa Coffee", "check_date": "2024-09-18", "cuisine": "coffee_shop", "diet:vegan": "yes", "diet:vegetarian": "yes", "drive_through": "no", "level": "0", "name": "Costa", "outdoor_seating": "yes", "payment:american_express": "yes", "smoking": "no", "source": "Network Rail", "takeaway": "yes", "toilets": "no", "wheelchair": "yes"}}, {"type": "node", "id": 576981455, "lat": 51.5252955, "lon": -0.1097767}, {"type": "node", "id": 577285302, "lat": 51.5021205, "lon": 0.004827}, {"type": "node", "id": 577559479, "lat": 51.5194253, "lon": -0.0782467, "tags": {"wheelchair": "yes"}}, {"type": "node", "id": 581057258, "lat": 51.499562, "lon": -0.1141846, "tags": {"addr:city": "London", "addr:housenumber": "141", "addr:postcode": "SE1 7HR", "addr:street": "Westminster Bridge Road", "amenity": "cafe", "check_date": "2025-08-16", "contact:instagram": "sistabaristacafe", "fhrs:id": "858052", "name": "Sista Barista", "old_name": "Zeitgeist", "source:addr": "FHRS Open Data", "wheelchair": "no"}}, {"type": "node", "id": 581960142, "lat": 51.5224662, "lon": -0.1035302, "tags": {"addr:city": "London", "addr:housenumber": "39", "addr:street": "Clerkenwell Road", "amenity": "cafe", "cuisine": "coffee_shop;sandwich", "name": "Roni's Cafe", "phone": "+44 20 7689 0657"}}, {"type": "node", "id": 581960643, "lat": 51.5224819, "lon": -0.1034208, "tags": {"addr:city": "London", "addr:housenumber": "33-37", "addr:postcode": "EC1M 5RS", "addr:street": "Clerkenwell Road", "addr:suburb": "Islington", "amenity": "cafe", "check_date": "2024-04-17", "cuisine": "coffee_shop", "fhrs:id": "416462", "indoor_seating": "yes", "name": "Knockbox Coffee", "outdoor_seating": "yes", "payment:credit_cards": "yes", "payment:debit_cards": "yes", "source:addr": "FHRS Open Data", "website": "https://www.facebook.com/knockboxofficial/"}}, {"type": "node", "id": 582630405, "lat": 51.5148343, "lon": -0.1407765, "tags": {"addr:city": "London", "addr:housenumber": "11", "addr:postcode": "W1F 7TH", "addr:street": "Argyll Street", "amenity": "cafe", "brand": "Costa", "brand:wikidata": "Q608845", "brand:wikipedia": "en:Costa Coffee", "cuisine": "coffee_shop", "fhrs:confidence_management": "5", "fhrs:hygiene": "5", "fhrs:id": "413209", "fhrs:local_authority_id": "01092/0011/0/001", "fhrs:rating": "5", "fhrs:structural": "5", "name": "Costa", "source:postcode": "FSA Food Hygiene Ratings Database", "takeaway": "yes", "toilets:wheelchair": "yes", "wheelchair": "limited"}}, {"type": "node", "id": 583286339, "lat": 51.4748458, "lon": -0.1745798, "tags": {"addr:city": "London", "addr:housename": "Battersea Square", "addr:housenumber": "20", "addr:postcode": "SW11 3RA", "addr:street": "Battersea Square", "amenity": "cafe", "fhrs:id": "1572258", "name": "Suzette", "source:addr": "FHRS Open Data"}}, {"type": "node", "id": 584433958, "lat": 51.5257934, "lon": -0.1103882}, {"type": "node", "id": 587737556, "lat": 51.5061106, "lon": -0.1003079}, {"type": "node", "id": 587775005, "lat": 51.502499, "lon": -0.11761, "tags": {"addr:city": "London", "addr:housenumber": "3j, 3k", "addr:postcode": "SE1 7GQ", "addr:street": "Belvedere Road", "amenity": "cafe", "cuisine": "italian_pizza;italian", "email": "info@cucina-restaurant.com", "fhrs:id": "1217355", "indoor_seating": "yes", "name": "La Cucina Di Mamma", "opening_hours": "Mo-Sa 11:00-00:00; Su 11:00-22:30", "outdoor_seating": "yes", "phone": "+44 20 7921 9352", "source:addr": "FHRS Open Data", "website": "https://cucina-restaurant.com/", "wheelchair": "no", "wheelchair:description": "Step to arcade area and entrance"}}, {"type": "node", "id": 588034827, "lat": 51.5075005, "lon": -0.1267675, "tags": {"amenity": "cafe", "brand": "Costa", "brand:wikidata": "Q608845", "brand:wikipedia": "en:Costa Coffee", "cuisine": "coffee_shop", "name": "Costa", "name:ja": "\u30b3\u30b9\u30bf", "takeaway": "yes", "toilets": "yes", "toilets:wheelchair": "yes", "wheelchair": "yes"}}, {"type": "node", "id": 588474736, "lat": 51.4948912, "lon": -0.0884898, "tags": {"addr:city": "London", "addr:housenumber": "25", "addr:postcode": "SE1 4AL", "addr:street": "Bartholomew Street", "amenity": "cafe", "fhrs:id": "1490111", "name": "Tokoton"}}, {"type": "node", "id": 593349441, "lat": 51.525621, "lon": -0.099581, "tags": {"amenity": "cafe"}}, {"type": "node", "id": 593552890, "lat": 51.5202072, "lon": -0.10342}, {"type": "node", "id": 594876703, "lat": 51.511417, "lon": -0.1366962, "tags": {"addr:city": "London", "addr:housenumber": "14/14A", "addr:postcode": "W1F 9JG", "addr:street": "Golden Square", "amenity": "cafe", "fhrs:confidence_management": "0", "fhrs:hygiene": "0", "fhrs:id": "414641", "fhrs:local_authority_id": "07/00004/COMM", "fhrs:rating": "5", "fhrs:structural": "5", "name": "Bibi's", "old_name": "Nordic Bakery", "source:addr": "FSA Food Hygiene Ratings Database", "website": "https://letsgotobibis.co.uk/", "wheelchair": "yes"}}, {"type": "node", "id": 595301296, "lat": 51.509704, "lon": -0.133266, "tags": {"addr:city": "London", "addr:housenumber": "45", "addr:postcode": "SW1Y 4SE", "addr:street": "Haymarket", "amenity": "cafe", "description": "Opening soon", "fhrs:id": "414755", "indoor_seating": "yes", "name": "Caffee Concerto", "outdoor_seating": "yes", "source:addr": "FHRS Open Data", "wheelchair": "yes"}}, {"type": "node", "id": 595303835, "lat": 51.5094715, "lon": -0.1323526, "tags": {"addr:city": "London", "addr:housenumber": "27", "addr:postcode": "SW1Y 4SP", "addr:street": "Haymarket", "amenity": "cafe", "brand": "Caff\u00e8 Nero", "brand:wikidata": "Q675808", "brand:wikipedia": "en:Caff\u00e8 Nero", "check_date": "2024-08-22", "check_date:opening_hours": "2024-08-22", "cuisine": "coffee_shop", "fhrs:id": "410889", "internet_access": "wlan", "name": "Caff\u00e8 Nero", "not:addr:postcode": "SW1Y 4ES", "opening_hours": "Mo-Th 06:30-21:00; Fr-Sa 06:30-22:00; Su 07:00-21:00", "source:addr": "FSA Food Hygiene Ratings Database", "source:addr:postcode": "code-point_open", "source:internet_access": "survey", "takeaway": "yes", "website": "https://www.caffenero.com/uk/stores/haymarket"}}, {"type": "node", "id": 597320358, "lat": 51.5061782, "lon": -0.100265}, {"type": "node", "id": 597321560, "lat": 51.5054451, "lon": -0.0972455, "tags": {"wheelchair": "yes"}}, {"type": "node", "id": 598066008, "lat": 51.5313062, "lon": -0.1247669}, {"type": "node", "id": 600826280, "lat": 51.5163517, "lon": -0.173857}, {"type": "node", "id": 600916912, "lat": 51.5143318, "lon": -0.1225202}, {"type": "node", "id": 601141504, "lat": 51.5163635, "lon": -0.1738739}, {"type": "node", "id": 601141507, "lat": 51.517429, "lon": -0.1719866}, {"type": "node", "id": 601580310, "lat": 51.5115316, "lon": -0.1192659, "tags": {"addr:city": "London", "addr:housenumber": "1", "addr:postcode": "WC2B 4BZ", "addr:street": "Aldwych", "amenity": "cafe", "cuisine": "tea;coffee_shop;cake", "name": "Charlie and The Chocolate Factory", "outdoor_seating": "no", "wheelchair": "no"}}, {"type": "node", "id": 603113483, "lat": 51.513513, "lon": -0.127203, "tags": {"amenity": "cafe", "name": "La Bottega", "outdoor_seating": "no"}}, {"type": "node", "id": 603113677, "lat": 51.5136786, "lon": -0.1272171}, {"type": "node", "id": 603128624, "lat": 51.5114893, "lon": -0.1276746, "tags": {"addr:city": "London", "addr:housenumber": "32", "addr:postcode": "WC2H 7AD", "addr:street": "Cranbourn Street", "amenity": "cafe", "brand": "Caff\u00e8 Nero", "brand:wikidata": "Q675808", "brand:wikipedia": "en:Caff\u00e8 Nero", "check_date": "2024-08-22", "check_date:opening_hours": "2024-08-22", "cuisine": "coffee_shop", "fhrs:confidence_management": "5", "fhrs:hygiene": "10", "fhrs:id": "428167", "fhrs:local_authority_id": "01652/0032/0/000", "fhrs:rating": "2", "fhrs:structural": "15", "internet_access": "wlan", "name": "Caff\u00e8 Nero", "opening_hours": "Mo-Th 06:00-21:00; Fr 06:00-22:00; Sa 07:00-22:00; Su 08:00-19:00", "source:addr": "FSA Food Hygiene Ratings Database", "source:internet_access": "survey", "source:postcode": "FSA Food Hygiene Ratings Database", "takeaway": "yes", "website": "https://www.caffenero.com/uk/stores/cranbourn-st", "wheelchair": "yes"}}, {"type": "node", "id": 609954947, "lat": 51.5125955, "lon": -0.104019, "tags": {"addr:city": "London", "addr:housename": "Offices, New Bridge Street House", "addr:housenumber": "30-34", "addr:postcode": "EC4V 6BJ", "addr:street": "New Bridge Street", "amenity": "cafe", "brand": "Starbucks", "brand:wikidata": "Q37158", "brand:wikipedia": "en:Starbucks", "cuisine": "coffee_shop", "fhrs:id": "294124", "fhrs:local_authority_id": "PI/000009495", "name": "Starbucks", "official_name": "Starbucks Coffee", "source:addr": "FHRS Open Data", "takeaway": "yes"}}, {"type": "node", "id": 616691983, "lat": 51.5119536, "lon": -0.1294878}, {"type": "node", "id": 617877649, "lat": 51.5312159, "lon": -0.1059624}, {"type": "node", "id": 618652278, "lat": 51.493499, "lon": -0.1413179}, {"type": "node", "id": 620024995, "lat": 51.4921493, "lon": -0.140409}, {"type": "node", "id": 620024997, "lat": 51.4921338, "lon": -0.1404606}, {"type": "node", "id": 620024999, "lat": 51.4921912, "lon": -0.1402696}, {"type": "node", "id": 621185183, "lat": 51.5210599, "lon": -0.108788, "tags": {"amenity": "cafe", "name": "Cafe Mano"}}, {"type": "node", "id": 621185189, "lat": 51.521416, "lon": -0.1088769, "tags": {"amenity": "cafe", "description": "sandwich bar cafe", "name": "Tuffo's Place"}}, {"type": "node", "id": 621374610, "lat": 51.5490577, "lon": -0.1415761}, {"type": "node", "id": 621374689, "lat": 51.5457765, "lon": -0.1421677}, {"type": "node", "id": 621771171, "lat": 51.5317157, "lon": -0.1046939, "tags": {"addr:city": "London", "addr:housenumber": "391", "addr:postcode": "EC1V 1NE", "addr:street": "City Road", "addr:suburb": "Islington", "amenity": "cafe", "fhrs:id": "776684", "level": "0", "name": "Duncan Terrace Cafe", "opening_hours": "Mo-Fr 07:00-17:00", "organic": "yes", "outdoor_seating": "yes", "source:addr": "FHRS Open Data", "website": "https://www.duncanterrace.co.uk/"}}, {"type": "node", "id": 623362924, "lat": 51.5089238, "lon": -0.1363655}, {"type": "node", "id": 623428350, "lat": 51.5159727, "lon": -0.1439257}, {"type": "node", "id": 624043344, "lat": 51.511855, "lon": -0.1313096, "tags": {"addr:city": "London", "addr:country": "GB", "addr:housenumber": "3", "addr:postcode": "W1D 6AU", "addr:street": "Macclesfield Street", "amenity": "cafe", "cuisine": "dessert", "description": "South East Asian themed soft drinks and desserts.", "fhrs:id": "414695", "level": "1", "name": "Candy Cafe", "note": "On first floor. Entrance to stairs is to the left of Leong's Legend.", "phone": "+44 20 7434 4581", "source": "survey; Bing 2012", "source:addr:postcode": "signage", "survey:date": "2014-08-23", "website": "https://www.candycafe.co.uk/"}}, {"type": "node", "id": 630425966, "lat": 51.5057172, "lon": -0.2269607, "tags": {"addr:floor": "G", "addr:housenumber": "214", "addr:street": "Uxbridge Road", "amenity": "cafe", "brand": "Costa", "brand:wikidata": "Q608845", "check_date": "2023-12-28", "cuisine": "coffee_shop", "level": "0", "name": "Costa", "takeaway": "yes", "wheelchair": "yes"}}, {"type": "node", "id": 634460229, "lat": 51.4901527, "lon": -0.2420154}, {"type": "node", "id": 635756147, "lat": 51.5250152, "lon": -0.1348982}, {"type": "node", "id": 635973933, "lat": 51.505967, "lon": -0.087685, "tags": {"amenity": "cafe", "name": "My Tea Shop"}}, {"type": "node", "id": 638925838, "lat": 51.532188, "lon": -0.105164, "tags": {"addr:city": "London", "addr:housenumber": "3", "addr:postcode": "EC1V 1NQ", "addr:street": "Torrens Street", "amenity": "cafe", "check_date": "2025-12-14", "cuisine": "coffee_shop", "name": "Candid Cafe", "note": "sign outside says \"vegetarian menu\" but does not say *only* vegetarian Website mentions non-vegetarian food too. Full menu not on web site", "opening_hours": "Mo-Sa 12:00-22:00; Su 12:00-17:00", "phone": "+44 20 7278 9368", "website": "https://candidarts.wordpress.com/cafe/", "wheelchair": "no"}}, {"type": "node", "id": 639112840, "lat": 51.5132127, "lon": -0.1313047}, {"type": "node", "id": 643312445, "lat": 51.5178546, "lon": -0.1134709, "tags": {"addr:city": "London", "addr:housenumber": "67", "addr:street": "Chancery Lane", "amenity": "cafe", "name": "Wendells"}}, {"type": "node", "id": 644625847, "lat": 51.5252191, "lon": -0.1327573, "tags": {"addr:city": "London", "addr:floor": "Upper Ground", "addr:housenumber": "15", "addr:postcode": "WC1H 0AY", "addr:street": "Gordon Street", "amenity": "cafe", "diet:vegan": "no", "diet:vegetarian": "yes", "name": "Bloomsbury Caf\u00e9", "opening_hours": "Mo-Fr 09:00-16:00", "operator": "Students' Union UCL", "toilets": "yes", "toilets:wheelchair": "yes", "website": "https://studentsunionucl.org/eat-drink-shop/cafes/bloomsbury-cafe", "wheelchair": "yes"}}, {"type": "node", "id": 645702435, "lat": 51.5481079, "lon": -0.0654299}, {"type": "node", "id": 647004373, "lat": 51.5322247, "lon": -0.1264865, "tags": {"amenity": "cafe", "brand": "Starbucks", "brand:wikidata": "Q37158", "brand:wikipedia": "en:Starbucks", "check_date": "2025-05-22", "cuisine": "coffee_shop", "indoor_seating": "yes", "level": "0", "name": "Starbucks", "official_name": "Starbucks Coffee", "outdoor_seating": "no", "payment:cash": "yes", "payment:contactless": "yes", "payment:credit_cards": "yes", "payment:debit_cards": "yes", "payment:mastercard": "yes", "payment:visa": "yes", "takeaway": "yes", "website": "https://www.starbucks.com/store-locator/store/2828/st-pancras-international-stati-st-pancras-international-station-london-eng-nw-1-2", "wheelchair": "yes"}}, {"type": "node", "id": 647052117, "lat": 51.5319049, "lon": -0.1263153, "tags": {"amenity": "cafe", "check_date": "2025-08-29", "description": "In this case (an arcade/ mall), \"outdoor seating\" is outside seating. There is also a Benugo Espresso Bar near the far end of the Grand Terrace (Level 1).", "diet:vegan": "yes", "diet:vegetarian": "yes", "email": "stpancras@benugo.com", "indoor_seating": "yes", "internet_access": "wlan", "level": "0", "name": "Benugo", "note": "August, 2025: FHRS ref. 1860494 (\"awaiting inspection\") might refer to this branch or the one on the Grand Terrace.", "opening_hours": "Mo-Sa 06:00-21:00; Su 07:00-21:00", "organic": "yes", "outdoor_seating": "yes", "website": "https://www.benugo.com/sites/cafes/benugo-st-pancras/", "wheelchair": "yes"}}, {"type": "node", "id": 647333252, "lat": 51.5145564, "lon": -0.1649754, "tags": {"addr:housenumber": "13", "addr:street": "Connaught Street", "amenity": "cafe", "name": "Markus Coffee Co Ltd", "phone": "+44 20 7723 4020", "website": "https://www.markuscoffee.com/"}}, {"type": "node", "id": 647402078, "lat": 51.5146604, "lon": -0.1665827, "tags": {"addr:city": "London", "addr:housenumber": "24", "addr:postcode": "W2 2AW", "addr:street": "Kendal Street", "amenity": "cafe", "fhrs:confidence_management": "5", "fhrs:hygiene": "5", "fhrs:id": "410940", "fhrs:local_authority_id": "00123/0024/0/000", "fhrs:rating": "5", "fhrs:structural": "5", "name": "Stuzzico...", "phone": "+44 20 7262 9122", "source:addr": "FSA Food Hygiene Ratings Database", "source:postcode": "FSA Food Hygiene Ratings Database", "website": "https://www.stuzzico.co.uk/"}}, {"type": "node", "id": 647875599, "lat": 51.5208569, "lon": -0.1164931, "tags": {"addr:city": "London", "addr:housenumber": "54", "addr:postcode": "WC1X 8NW", "addr:street": "Theobalds Road", "amenity": "cafe", "brand": "Caff\u00e8 Nero", "brand:wikidata": "Q675808", "brand:wikipedia": "en:Caff\u00e8 Nero", "check_date": "2025-12-09", "check_date:toilets:wheelchair": "2025-12-09", "cuisine": "coffee_shop", "fhrs:id": "425543", "indoor_seating": "yes", "name": "Caff\u00e8 Nero", "opening_hours": "Mo-Fr 07:00-19:00, Sa 07:30-18:00, Su 07:30-17:30", "outdoor_seating": "yes", "takeaway": "yes", "toilets:wheelchair": "no", "website": "https://www.caffenero.com/uk/stores/theobalds-rd", "wheelchair": "limited"}}, {"type": "node", "id": 648517568, "lat": 51.5261237, "lon": -0.0781397, "tags": {"addr:city": "London", "addr:country": "GB", "addr:housenumber": "140", "addr:postcode": "E1 6JE", "addr:street": "Shoreditch High Street", "amenity": "cafe", "fhrs:id": "469018", "name": "Prufrock Coffee"}}, {"type": "node", "id": 652850246, "lat": 51.5278082, "lon": -0.0226198, "tags": {"addr:city": "London", "addr:housenumber": "123", "addr:postcode": "E3 2AN", "addr:street": "Bow Road", "amenity": "cafe", "check_date": "2025-11-15", "contact:facebook": "mightybitecafe", "fhrs:id": "149239", "name": "Mighty Bite", "source:addr": "FHRS Open Data"}}, {"type": "node", "id": 653124873, "lat": 51.5087508, "lon": -0.1254965, "tags": {"addr:city": "London", "addr:housenumber": "448", "addr:postcode": "WC2R 0QU", "addr:street": "Strand", "addr:suburb": "Strand", "amenity": "cafe", "check_date": "2023-09-23", "fhrs:id": "1454823", "level": "0", "name": "Social Bite", "payment:american_express": "yes", "source:addr": "FHRS Open Data", "wheelchair": "no"}}, {"type": "node", "id": 653142618, "lat": 51.5013164, "lon": -0.07786, "tags": {"addr:city": "London", "addr:housename": "The Cat & Cucumber", "addr:housenumber": "182", "addr:postcode": "SE1 2AD", "addr:street": "Tower Bridge Road", "amenity": "cafe", "cuisine": "greasy_spoon;breakfast", "facebook": "https://www.facebook.com/people/Cat-Cucumber/100057108024497/", "fhrs:id": "364381", "name": "The Cat & Cucumber", "opening_hours": "Mo-Fr 06:30-15:00; Sa 07:30-14:00"}}, {"type": "node", "id": 655166613, "lat": 51.48997, "lon": -0.096525, "tags": {"addr:city": "London", "addr:housenumber": "185", "addr:postcode": "SE17 1RW", "addr:street": "Walworth Road", "amenity": "cafe", "check_date": "2024-01-12", "fhrs:id": "1518106", "name": "Cafe Amore", "wheelchair": "no"}}, {"type": "node", "id": 655168554, "lat": 51.4928238, "lon": -0.1000252, "tags": {"amenity": "cafe", "name": "Builders Cafe"}}, {"type": "node", "id": 659568051, "lat": 51.538161, "lon": -0.0568922}, {"type": "node", "id": 659568127, "lat": 51.5400427, "lon": -0.0540599}, {"type": "node", "id": 659568425, "lat": 51.5381703, "lon": -0.043749}, {"type": "node", "id": 659849778, "lat": 51.5312571, "lon": -0.056868}, {"type": "node", "id": 659850008, "lat": 51.5291163, "lon": -0.0465428}, {"type": "node", "id": 661038345, "lat": 51.500624, "lon": -0.116915, "tags": {"amenity": "cafe", "description": "Fixme: check name", "name": "Espressamente", "opening_hours": "Mo-Su 06:30-18:00"}}, {"type": "node", "id": 661152752, "lat": 51.5084346, "lon": -0.1321275, "tags": {"addr:city": "London", "addr:housenumber": "15", "addr:postcode": "SW1Y 4QU", "addr:street": "Charles II Street", "amenity": "cafe", "cuisine": "noodle", "fhrs:id": "568272", "name": "The Borough Barista", "source:addr": "FHRS Open Data", "wheelchair": "no"}}, {"type": "node", "id": 662047702, "lat": 51.5136868, "lon": -0.0332395}, {"type": "node", "id": 662184774, "lat": 51.5066813, "lon": -0.0740464, "tags": {"addr:city": "London", "addr:housename": "Guoman Tower Hotel", "addr:postcode": "E1W 1LD", "addr:street": "St. Katharine's Way", "amenity": "cafe", "cuisine": "coffee_shop"}}, {"type": "node", "id": 662259792, "lat": 51.5185984, "lon": -0.0854119}, {"type": "node", "id": 662564028, "lat": 51.5120778, "lon": -0.0281381}, {"type": "node", "id": 662564043, "lat": 51.5096554, "lon": -0.0249477}, {"type": "node", "id": 663673314, "lat": 51.5159478, "lon": -0.0774917}, {"type": "node", "id": 663673315, "lat": 51.5158811, "lon": -0.0773703}, {"type": "node", "id": 663673319, "lat": 51.5161789, "lon": -0.077189}, {"type": "node", "id": 663673321, "lat": 51.5162292, "lon": -0.0771505}, {"type": "node", "id": 664966075, "lat": 51.5195479, "lon": -0.135626, "tags": {"addr:housenumber": "44", "addr:street": "Charlotte Street", "air_conditioning": "yes", "amenity": "cafe", "brand": "Blank Street Coffee", "brand:wikidata": "Q114792509", "changing_table": "no", "check_date": "2025-10-02", "check_date:diet:gluten_free": "2025-10-02", "check_date:diet:vegan": "2025-10-02", "check_date:diet:vegetarian": "2025-10-02", "check_date:opening_hours": "2025-10-02", "cuisine": "coffee_shop", "diet:gluten_free": "no", "diet:vegan": "no", "diet:vegetarian": "yes", "fhrs:id": "1500544", "indoor_seating": "yes", "name": "Blank Street Coffee", "opening_hours": "Mo-Fr 06:30-20:00; Sa,Su 07:00-19:00", "outdoor_seating": "yes", "takeaway": "yes", "wheelchair": "no"}}, {"type": "node", "id": 666122698, "lat": 51.5020512, "lon": -0.2030872}, {"type": "node", "id": 666122705, "lat": 51.5020814, "lon": -0.2029588}, {"type": "node", "id": 666475916, "lat": 51.5138693, "lon": -0.0935309, "tags": {"addr:city": "London", "addr:postcode": "EC2V 6AU", "addr:street": "Cheapside", "amenity": "cafe", "cuisine": "breakfast;local", "email": "info@cafebelow.co.uk", "fhrs:id": "293797", "indoor_seating": "yes", "layer": "-1", "name": "Cafe Below", "opening_hours": "Mo-Fr 07:00-10:00, 11:30-14:30", "outdoor_seating": "no", "phone": "+44 20 7329 0789", "website": "https://www.cafebelow.co.uk/"}}, {"type": "node", "id": 666749188, "lat": 51.5115013, "lon": -0.0751203, "tags": {"addr:city": "London", "addr:housename": "Prospero House", "addr:housenumber": "48-51", "addr:postcode": "EC3N 1JJ", "addr:street": "Minories", "addr:unit": "Ground Floor Retail Unit", "amenity": "cafe", "brand": "Starbucks", "brand:wikidata": "Q37158", "brand:wikipedia": "en:Starbucks", "cuisine": "coffee_shop", "fhrs:id": "295223", "indoor_seating": "yes", "name": "Starbucks", "official_name": "Starbucks Coffee", "outdoor_seating": "yes", "takeaway": "yes", "website": "https://www.starbucks.com/store-locator/store/2678/minories-48-50-minories-london-eng-ec-3-n-1-jj-gb"}}, {"type": "node", "id": 667454570, "lat": 51.510474, "lon": -0.074603, "tags": {"addr:city": "London", "addr:housenumber": "77", "addr:postcode": "EC3N 1JL", "addr:street": "Minories", "amenity": "cafe", "fhrs:id": "294103", "name": "Oasis"}}, {"type": "node", "id": 668820569, "lat": 51.511976, "lon": -0.079927, "tags": {"addr:city": "London", "addr:housenumber": "22", "addr:postcode": "EC3R 7JP", "addr:street": "London Street", "amenity": "cafe", "brand": "Caff\u00e8 Nero", "brand:wikidata": "Q675808", "brand:wikipedia": "en:Caff\u00e8 Nero", "check_date": "2024-08-22", "cuisine": "coffee_shop", "fhrs:id": "294394", "fhrs:local_authority_id": "PI/000013790", "name": "Caff\u00e8 Nero", "opening_hours": "Mo-Fr 06:00-18:30", "phone": "+44 20 7488 2602", "source:addr": "FHRS Open Data", "takeaway": "yes", "website": "https://www.caffenero.com/uk/stores/fenchurch-street", "wheelchair": "yes"}}, {"type": "node", "id": 669891136, "lat": 51.5294047, "lon": -0.1296186, "tags": {"addr:city": "London", "addr:housenumber": "44", "addr:postcode": "NW1 1JB", "addr:street": "Chalton Street", "amenity": "cafe", "fhrs:id": "426152", "name": "Pinner Cafe"}}, {"type": "node", "id": 672713708, "lat": 51.5150998, "lon": -0.0685281, "tags": {"addr:city": "London", "addr:housenumber": "29", "addr:postcode": "E1 1LD", "addr:street": "Commercial Road", "amenity": "cafe", "name": "Fresh"}}, {"type": "node", "id": 674922785, "lat": 51.5358233, "lon": -0.1395423}, {"type": "node", "id": 675734371, "lat": 51.5117445, "lon": -0.0774102, "tags": {"addr:city": "London", "addr:housenumber": "5", "addr:postcode": "EC3N 3AE", "addr:street": "Lloyd's Avenue", "amenity": "cafe", "name": "Caffeina"}}, {"type": "node", "id": 675800454, "lat": 51.5060928, "lon": -0.1359706, "tags": {"addr:city": "London", "addr:housenumber": "41", "addr:postcode": "SW1Y 5JG", "addr:street": "Pall Mall", "amenity": "cafe", "check_date": "2023-09-23", "fhrs:id": "772743", "level": "0", "name": "St James Caffe", "source:addr": "FHRS Open Data", "wheelchair": "limited"}}, {"type": "node", "id": 675866067, "lat": 51.5084676, "lon": -0.136869, "tags": {"addr:city": "London", "addr:housenumber": "35", "addr:postcode": "SW1Y 6DT", "addr:street": "Jermyn Street", "amenity": "cafe", "brand": "Redemption Roasters", "brand:wikidata": "Q111657079", "check_date": "2025-07-13", "cuisine": "coffee_shop", "name": "Redemption Roasters", "opening_hours": "Mo-Fr 07:00-18:00; Sa 08:00-18:00; Su 09:00-18:00", "outdoor_seating": "yes", "payment:credit_cards": "yes", "payment:debit_cards": "yes", "source:addr": "FSA Food Hygiene Ratings Database", "source:postcode": "FSA Food Hygiene Ratings Database", "takeaway": "yes", "wheelchair": "no"}}, {"type": "node", "id": 677545127, "lat": 51.5413596, "lon": -0.1567001}, {"type": "node", "id": 678341248, "lat": 51.5280711, "lon": -0.2161023}, {"type": "node", "id": 678725269, "lat": 51.5192812, "lon": -0.1090485}, {"type": "node", "id": 679658286, "lat": 51.494997, "lon": -0.084128, "tags": {"amenity": "cafe", "name": "Presto Cafe"}}, {"type": "node", "id": 679658528, "lat": 51.495478, "lon": -0.083377, "tags": {"amenity": "cafe", "name": "Royal Delight"}}, {"type": "node", "id": 679658661, "lat": 51.495661, "lon": -0.083087, "tags": {"addr:housenumber": "60", "addr:street": "Tower Bridge Road", "amenity": "cafe", "cuisine": "caribbean", "name": "Leone"}}, {"type": "node", "id": 681200105, "lat": 51.5282488, "lon": -0.1336117, "tags": {"addr:city": "London", "addr:housename": "Euston Station", "addr:postcode": "NW1 2HS", "addr:street": "Eversholt Street", "amenity": "cafe", "changing_table": "no", "check_date": "2025-09-17", "check_date:opening_hours": "2025-09-17", "cuisine": "coffee_shop", "diet:vegan": "yes", "diet:vegetarian": "yes", "indoor_seating": "no", "level": "0", "name": "Panopolis", "opening_hours": "Mo-Sa 06:30-22:30; Su 07:00-22:30", "outdoor_seating": "no", "payment:credit_cards": "yes", "payment:debit_cards": "yes", "source:addr": "FHRS Open Data", "takeaway": "only"}}, {"type": "node", "id": 689097130, "lat": 51.5084656, "lon": -0.0792217, "tags": {"addr:city": "London", "addr:housename": "Tower Place East", "addr:postcode": "EC3R 5BT", "addr:street": "Tower Place", "addr:unit": "Unit 3", "amenity": "cafe", "brand": "Starbucks", "brand:wikidata": "Q37158", "brand:wikipedia": "en:Starbucks", "cuisine": "coffee_shop", "fhrs:id": "294671", "name": "Starbucks", "official_name": "Starbucks Coffee", "takeaway": "yes", "toilets:wheelchair": "yes", "website": "https://www.starbucks.com/store-locator/store/2859/east-building-tower-place-3-lo-3-tower-place-london-eng-ec-3-r-5-bt-gb", "wheelchair": "yes"}}, {"type": "node", "id": 690721437, "lat": 51.5069374, "lon": -0.1459816, "tags": {"addr:housenumber": "50-52", "addr:street": "Curzon Street", "amenity": "cafe", "brand": "Caff\u00e8 Nero", "brand:wikidata": "Q675808", "brand:wikipedia": "en:Caff\u00e8 Nero", "check_date": "2025-10-03", "check_date:opening_hours": "2025-10-03", "cuisine": "coffee_shop", "name": "Caff\u00e8 Nero", "opening_hours": "Mo-Su 06:30-19:30", "phone": "+44 20 7409 0595", "takeaway": "yes", "website": "https://www.caffenero.com/uk/stores/curzon-st"}}, {"type": "node", "id": 691084094, "lat": 51.5158824, "lon": -0.1406487, "tags": {"addr:city": "London", "addr:housenumber": "4", "addr:postcode": "W1W 8QJ", "addr:street": "Great Portland Street", "amenity": "cafe", "brand": "Costa", "brand:wikidata": "Q608845", "brand:wikipedia": "en:Costa Coffee", "check_date": "2025-04-29", "cuisine": "coffee_shop", "fhrs:confidence_management": "0", "fhrs:hygiene": "5", "fhrs:id": "411903", "fhrs:local_authority_id": "00603/0004/1/005", "fhrs:rating": "5", "fhrs:structural": "5", "indoor_seating": "yes", "name": "Costa", "opening_hours": "Mo-Fr 06:00-23:00; Sa 07:00-23:00; Su 07:30-21:00", "outdoor_seating": "yes", "source:postcode": "survey", "takeaway": "yes", "website": "https://www.costa.co.uk/", "wheelchair": "no"}}, {"type": "node", "id": 691084097, "lat": 51.5162655, "lon": -0.1407239, "tags": {"addr:city": "London", "addr:housenumber": "12", "addr:postcode": "W1W 8QN", "addr:street": "Great Portland Street", "amenity": "cafe", "brand": "Joe & The Juice", "brand:wikidata": "Q26221514", "cuisine": "coffee_shop", "name": "Joe & The Juice", "takeaway": "yes"}}, {"type": "node", "id": 691084101, "lat": 51.5164718, "lon": -0.1409473, "tags": {"addr:housenumber": "20", "addr:street": "Great Portland Street", "amenity": "cafe", "indoor_seating": "yes", "name": "Dulche", "outdoor_seating": "yes"}}, {"type": "node", "id": 691114553, "lat": 51.5182443, "lon": -0.141725, "tags": {"amenity": "cafe", "check_date": "2024-12-20", "indoor_seating": "yes", "name": "GT Corner", "outdoor_seating": "yes"}}, {"type": "node", "id": 691387452, "lat": 51.5097893, "lon": -0.0794907, "tags": {"addr:city": "London", "addr:country": "GB", "addr:housenumber": "12", "addr:postcode": "EC3R 5AS", "addr:street": "Byward Street", "amenity": "cafe", "check_date": "2025-06-20", "diet:vegan": "no", "diet:vegetarian": "yes", "fhrs:id": "1542349", "fhrs:local_authority_id": "PI/000039176", "level": "0", "name": "Carter's"}}, {"type": "node", "id": 691637963, "lat": 51.511192, "lon": -0.127852, "tags": {"amenity": "cafe", "name": "Cafe Koha", "wheelchair": "limited"}}, {"type": "node", "id": 692129366, "lat": 51.5181547, "lon": -0.1402859}, {"type": "node", "id": 692129387, "lat": 51.5181203, "lon": -0.1394034}, {"type": "node", "id": 692129395, "lat": 51.51819, "lon": -0.1392606}, {"type": "node", "id": 692190688, "lat": 51.5130057, "lon": -0.1318284}, {"type": "node", "id": 693137893, "lat": 51.4977754, "lon": -0.1839574, "tags": {"addr:housenumber": "62", "addr:street": "Gloucester Road", "amenity": "cafe", "name": "Cafe Deco", "phone": "+44 20 7225 3286"}}, {"type": "node", "id": 694473687, "lat": 51.511228, "lon": -0.077017, "tags": {"addr:city": "London", "addr:housename": "Fenchurch Street Station", "addr:postcode": "EC3M 4AJ", "addr:street": "Fenchurch Place", "amenity": "cafe", "fhrs:id": "294597", "name": "Camden Food Co"}}, {"type": "node", "id": 696746887, "lat": 51.5223949, "lon": -0.1322463, "tags": {"addr:city": "London", "addr:housenumber": "82", "addr:postcode": "WC1E 6EG", "addr:street": "Gower Street", "amenity": "cafe", "check_date": "2025-07-03", "fhrs:id": "947352", "indoor_seating": "yes", "name": "Dillons", "outdoor_seating": "yes", "source:addr": "FHRS Open Data", "toilets:wheelchair": "yes", "wheelchair": "yes", "wheelchair:description": "Toilet located on basement level (Waterstones)."}}, {"type": "node", "id": 698447397, "lat": 51.5228705, "lon": -0.132082, "tags": {"air_conditioning": "yes", "amenity": "cafe", "check_date": "2025-11-27", "diet:vegan": "no", "diet:vegetarian": "yes", "indoor_seating": "yes", "name": "Engineering Cafe", "opening_hours": "Mo-Fr 08:30-18:00; SH Mo-Fr 08:30-16:00", "outdoor_seating": "no", "wheelchair": "yes"}}, {"type": "node", "id": 698660644, "lat": 51.5174807, "lon": -0.1263124}, {"type": "node", "id": 699677201, "lat": 51.5373301, "lon": -0.0443227}, {"type": "node", "id": 699693936, "lat": 51.4945555, "lon": -0.182426, "tags": {"addr:city": "London", "addr:housenumber": "83", "addr:street": "Gloucester Road", "amenity": "cafe", "brand": "Starbucks", "brand:wikidata": "Q37158", "brand:wikipedia": "en:Starbucks", "cuisine": "coffee_shop", "diet:vegetarian": "yes", "indoor_seating": "yes", "name": "Starbucks", "official_name": "Starbucks Coffee", "opening_hours": "Mo-Fr 06:30-21:00; Sa,Su 07:30-21:00; PH 08:00-20:00", "outdoor_seating": "no", "takeaway": "yes"}}, {"type": "node", "id": 701186286, "lat": 51.5271291, "lon": -0.0135072}, {"type": "node", "id": 701186294, "lat": 51.5269755, "lon": -0.0133881}, {"type": "node", "id": 701186296, "lat": 51.5270591, "lon": -0.013303}, {"type": "node", "id": 701186299, "lat": 51.5271637, "lon": -0.0133748}, {"type": "node", "id": 701600713, "lat": 51.5131542, "lon": -0.1376484}, {"type": "node", "id": 701600714, "lat": 51.5131392, "lon": -0.1375664}, {"type": "node", "id": 701600718, "lat": 51.5132041, "lon": -0.1376888}, {"type": "node", "id": 701600723, "lat": 51.5132523, "lon": -0.1376604}, {"type": "node", "id": 702796635, "lat": 51.5126035, "lon": -0.090075, "tags": {"addr:city": "London", "addr:housenumber": "38", "addr:postcode": "EC4N 8BN", "addr:street": "Walbrook", "amenity": "cafe", "brand": "Starbucks", "brand:wikidata": "Q37158", "brand:wikipedia": "en:Starbucks", "cuisine": "coffee_shop", "fhrs:id": "294257", "indoor_seating": "yes", "name": "Starbucks", "official_name": "Starbucks Coffee", "opening_hours": "Mo-Fr 06:00-19:00", "outdoor_seating": "no", "phone": "+44 20 7626 1391", "takeaway": "yes"}}, {"type": "node", "id": 703360692, "lat": 51.5180533, "lon": -0.1171093, "tags": {"amenity": "cafe", "name": "apostrophe"}}, {"type": "node", "id": 703524047, "lat": 51.5272968, "lon": -0.1026967, "tags": {"amenity": "cafe", "wheelchair": "yes"}}, {"type": "node", "id": 704313999, "lat": 51.491734, "lon": -0.087267, "tags": {"amenity": "cafe", "name": "Darwin Court Cafe"}}, {"type": "node", "id": 705212455, "lat": 51.4635424, "lon": -0.1144562, "tags": {"addr:city": "London", "addr:housenumber": "413", "addr:postcode": "SW9 7DG", "addr:street": "Brixton Road", "amenity": "cafe", "check_date": "2025-12-21", "cuisine": "italian", "fhrs:authority": "Lambeth", "fhrs:id": "483505", "fhrs:inspectiondate": "2013-02-06", "fhrs:rating": "5", "name": "San Marino"}}, {"type": "node", "id": 707299370, "lat": 51.5110877, "lon": -0.0756382, "tags": {"addr:city": "London", "addr:housenumber": "19", "addr:postcode": "EC3N 2PX", "addr:street": "Vine Street", "amenity": "cafe", "cuisine": "breakfast", "fhrs:id": "817482", "name": "De Vine", "opening_hours": "Mo-Fr 07:00-14:00", "phone": "+44 20 7488 9929"}}, {"type": "node", "id": 707301027, "lat": 51.510903, "lon": -0.0755982, "tags": {"addr:city": "London", "addr:housenumber": "19A", "addr:postcode": "EC3N 2PX", "addr:street": "Vine Street", "amenity": "cafe", "fhrs:id": "1080528", "name": "Burrito Joe"}}, {"type": "node", "id": 708866092, "lat": 51.5152475, "lon": -0.0799419, "tags": {"addr:city": "London", "addr:housenumber": "50", "addr:postcode": "EC3A 8FR", "addr:street": "Saint Mary Axe", "amenity": "cafe", "brand": "Caff\u00e8 Nero", "brand:wikidata": "Q675808", "brand:wikipedia": "en:Caff\u00e8 Nero", "check_date": "2024-08-22", "check_date:opening_hours": "2024-08-22", "cuisine": "coffee_shop", "fhrs:id": "294854", "indoor_seating": "yes", "name": "Caff\u00e8 Nero", "opening_hours": "Mo-Th 06:30-17:30; Fr 06:30-17:00; Sa-Su closed", "outdoor_seating": "no", "takeaway": "yes", "website": "https://www.caffenero.com/uk/stores/st-mary-axe", "wheelchair": "yes"}}, {"type": "node", "id": 710527432, "lat": 51.5106631, "lon": -0.0763715, "tags": {"amenity": "cafe"}},