{"version": 0.6, "generator": "Overpass API 0.7.62.8 e802775f", "osm3s": {"timestamp_osm_base": "2026-01-07T04:05:52Z", "copyright": "The data included in this document is from www.openstreetmap.org. The data is made available under ODbL."}, "elements": [{"type": "node", "id": 31403393, "lat": 51.4692707, "lon": -0.067576}, {"type": "node", "id": 45265824, "lat": 51.6073487, "lon": 0.2196407, "tags": {"addr:city": "Romford", "addr:postcode": "RM3 8DD", "addr:street": "Hilldene Avenue", "amenity": "bank", "atm": "yes", "brand": "NatWest", "brand:wikidata": "Q2740021", "name": "NatWest", "source:addr:postcode": "code-point_open"}}, {"type": "node", "id": 128666653, "lat": 51.3740727, "lon": -0.0970945}, {"type": "node", "id": 248201865, "lat": 51.6524115, "lon": -0.0805121, "tags": {"amenity": "atm", "brand": "Lloyds Bank", "brand:wikidata": "Q1152847", "brand:wikipedia": "en:Lloyds Bank", "operator": "Lloyds Bank", "operator:wikidata": "Q1152847"}}, {"type": "node", "id": 254924507, "lat": 51.5189997, "lon": -0.1331053, "tags": {"amenity": "bank", "atm": "yes", "brand": "NatWest", "brand:wikidata": "Q2740021", "brand:wikipedia": "en:NatWest", "check_date": "2025-09-10", "name": "NatWest", "opening_hours": "Mo,Tu,Th,Fr 09:30-17:30; We 10:00-17:30; Sa 10:00-15:00", "website": "https://www.natwest.com/search-results/locator/branch.html?sortcode=560031&name=Tottenham%20Court%20Road", "wheelchair": "yes"}}, {"type": "node", "id": 255396265, "lat": 51.5138392, "lon": -0.0929681}, {"type": "node", "id": 255960381, "lat": 51.4926019, "lon": -0.2669623}, {"type": "node", "id": 263905051, "lat": 51.573103, "lon": -0.0721081, "tags": {"amenity": "bank", "atm": "yes", "brand": "Barclays", "brand:wikidata": "Q245343", "brand:wikipedia": "en:Barclays", "name": "Barclays", "operator": "Barclays Bank PLC"}}, {"type": "node", "id": 273542286, "lat": 51.4638115, "lon": -0.1143893}, {"type": "node", "id": 273542290, "lat": 51.461944, "lon": -0.1155653}, {"type": "node", "id": 277834912, "lat": 51.3611266, "lon": -0.1922546, "tags": {"amenity": "bank", "atm": "yes", "brand": "Barclays", "brand:wikidata": "Q245343", "brand:wikipedia": "en:Barclays", "name": "Barclays", "opening_hours": "Mo-Fr 09:30-15:00; Sa 09:30-13:00", "operator": "Barclays Bank PLC", "wheelchair": "limited"}}, {"type": "node", "id": 277834922, "lat": 51.3614374, "lon": -0.1923728, "tags": {"addr:country": "GB", "amenity": "bank", "atm": "yes", "brand": "Lloyds Bank", "brand:wikidata": "Q1152847", "brand:wikipedia": "en:Lloyds Bank", "contact:website": "https://branches.lloydsbank.com/sutton/49/53-high-street", "name": "Lloyds Bank", "opening_hours": "Mo-Fr 09:00-17:00; Sa 09:00-15:00"}}, {"type": "node", "id": 279104433, "lat": 51.5270732, "lon": -0.0597073, "tags": {"addr:city": "London", "addr:street": "Bethnal Green Road", "amenity": "bank", "atm": "yes", "brand": "NatWest", "brand:wikidata": "Q2740021", "brand:wikipedia": "en:NatWest", "name": "NatWest"}}, {"type": "node", "id": 280380045, "lat": 51.4624278, "lon": -0.3029575, "tags": {"addr:city": "Richmond", "addr:country": "GB", "addr:housenumber": "19-21", "addr:postcode": "TW9 1BP", "addr:street": "The Quadrant", "amenity": "bank", "atm": "yes", "brand": "Lloyds Bank", "brand:wikidata": "Q1152847", "brand:wikipedia": "en:Lloyds Bank", "contact:website": "https://branches.lloydsbank.com/richmond/19-20-the-quadrant", "drive_through": "no", "level": "1", "name": "Lloyds Bank"}}, {"type": "node", "id": 281454991, "lat": 51.5175833, "lon": -0.121515}, {"type": "node", "id": 287112039, "lat": 51.5338374, "lon": -0.0277407}, {"type": "node", "id": 288037175, "lat": 51.4065908, "lon": -0.0290766, "tags": {"amenity": "bank", "atm": "yes", "brand": "Nationwide", "brand:wikidata": "Q846735", "check_date": "2024-09-02", "check_date:opening_hours": "2024-09-02", "name": "Nationwide", "opening_hours": "Mo 09:00-16:30; Tu closed; We 10:00-16:30; Th 09:00-16:30; Fr closed; Sa 09:00-12:00; Su closed", "phone": "+44 345 266 0251", "website": "https://www.nationwide.co.uk/branches/beckenham/230-high-street"}}, {"type": "node", "id": 290517874, "lat": 51.446422, "lon": -0.4107693}, {"type": "node", "id": 290517875, "lat": 51.4464972, "lon": -0.4107195}, {"type": "node", "id": 292705420, "lat": 51.5106139, "lon": -0.0852657}, {"type": "node", "id": 293517894, "lat": 51.5109778, "lon": -0.085359}, {"type": "node", "id": 293741400, "lat": 51.5333435, "lon": -0.1725027, "tags": {"addr:housenumber": "40", "addr:street": "Wellington Road", "amenity": "bank", "atm": "yes", "branch": "St John's Wood", "brand": "Barclays", "brand:wikidata": "Q245343", "check_date": "2024-10-16", "name": "Barclays", "opening_hours": "Mo-Fr 09:30-15:00", "operator": "Barclays Bank PLC", "payment:apple_pay": "yes", "payment:cash": "yes", "payment:contactless": "yes", "payment:credit_cards": "yes", "payment:debit_cards": "yes", "payment:google_pay": "yes"}}, {"type": "node", "id": 293990348, "lat": 51.5393063, "lon": -0.1427663}, {"type": "node", "id": 295817593, "lat": 51.516859, "lon": -0.1660022, "tags": {"amenity": "atm", "check_date": "2022-06-13", "operator": "Barclays"}}, {"type": "node", "id": 304464854, "lat": 51.5394883, "lon": -0.2519116, "tags": {"amenity": "bank", "brand": "RBS", "brand:wikidata": "Q160126", "name": "RBS", "official_name": "Royal Bank of Scotland"}}, {"type": "node", "id": 305394868, "lat": 51.5440932, "lon": -0.297089, "tags": {"amenity": "bank", "atm": "yes", "brand": "Barclays", "brand:wikidata": "Q245343", "brand:wikipedia": "en:Barclays", "name": "Barclays", "operator": "Barclays Bank PLC"}}, {"type": "node", "id": 305399276, "lat": 51.5521129, "lon": -0.2992097}, {"type": "node", "id": 305410628, "lat": 51.5524308, "lon": -0.2848927}, {"type": "node", "id": 305417363, "lat": 51.5533023, "lon": -0.2944105}, {"type": "node", "id": 305579005, "lat": 51.5187702, "lon": -0.1328831, "tags": {"addr:city": "London", "addr:housenumber": "39", "addr:postcode": "W1T 2AR", "addr:street": "Tottenham Court Road", "amenity": "bank", "atm": "yes", "brand": "HSBC UK", "brand:wikidata": "Q64767453", "check_date": "2025-04-02", "contact:website": "https://www.hsbc.co.uk/branch-list/tottenham-court-road/", "name": "HSBC UK", "opening_hours": "Mo,We,Fr 09:00-18:00; Tu 09:30-18:00; Th 09:00-19:00", "wheelchair": "yes"}}, {"type": "node", "id": 305743941, "lat": 51.4058203, "lon": 0.0149117, "tags": {"addr:country": "GB", "amenity": "bank", "brand": "Lloyds Bank", "brand:wikidata": "Q1152847", "brand:wikipedia": "en:Lloyds Bank", "name": "Lloyds Bank", "website": "https://branches.lloydsbank.com/kent/6-8-market-square"}}, {"type": "node", "id": 306047358, "lat": 51.5334153, "lon": -0.1066122, "tags": {"amenity": "bank", "atm": "yes", "brand:wikidata": "Q19840404", "name": "Marks & Spencer", "wheelchair": "yes"}}, {"type": "node", "id": 307536212, "lat": 51.5463097, "lon": 0.0256436, "tags": {"addr:city": "London", "addr:housenumber": "306", "addr:street": "Romford Road", "amenity": "bank", "brand": "Barclays", "brand:wikidata": "Q245343", "brand:wikipedia": "en:Barclays", "name": "Barclays", "operator": "Barclays Bank PLC"}}, {"type": "node", "id": 308728978, "lat": 51.4925386, "lon": -0.2607539}, {"type": "node", "id": 308839174, "lat": 51.5326714, "lon": -0.1063646}, {"type": "node", "id": 308839175, "lat": 51.532496, "lon": -0.1064477, "tags": {"amenity": "bank", "atm": "yes", "brand": "Santander", "brand:wikidata": "Q7420065", "brand:wikipedia": "en:Santander Bank", "check_date": "2025-10-14", "currency:GBP": "yes", "drive_through": "no", "level": "0", "name": "Santander", "source": "survey", "wheelchair": "yes"}}, {"type": "node", "id": 309376857, "lat": 51.5623436, "lon": -0.0733706, "tags": {"addr:city": "London", "addr:housenumber": "196-198", "addr:postcode": "N16 7JD", "addr:street": "Stoke Newington High Street", "amenity": "bank", "atm": "yes", "brand": "NatWest", "brand:wikidata": "Q2740021", "brand:wikipedia": "en:NatWest", "name": "NatWest", "website": "https://www.natwest.com/search-results/locator/branch.html?sortcode=602032&name=Stoke%20Newington", "wheelchair": "limited"}}, {"type": "node", "id": 312671342, "lat": 51.4032354, "lon": -0.1924379, "tags": {"amenity": "bank", "atm": "yes", "brand": "Nationwide", "brand:wikidata": "Q846735", "check_date": "2024-09-02", "check_date:opening_hours": "2024-09-02", "name": "Nationwide", "opening_hours": "Mo-Tu 09:00-16:30; We closed; Th 09:00-16:30; Fr-Su closed", "phone": "+44 345 266 0275", "website": "https://www.nationwide.co.uk/branches/morden/26-london-road"}}, {"type": "node", "id": 331936071, "lat": 51.5400828, "lon": 0.0510623, "tags": {"amenity": "bank", "brand": "Nationwide", "brand:wikidata": "Q846735", "check_date": "2024-09-03", "name": "Nationwide", "website": "https://www.nationwide.co.uk/branches/east-ham/222/224-high-street-north"}}, {"type": "node", "id": 333782625, "lat": 51.5347907, "lon": 0.0533594, "tags": {"addr:city": "London", "addr:street": "High Street North", "addr:suburb": "East Ham", "amenity": "bank", "brand": "Barclays", "brand:wikidata": "Q245343", "brand:wikipedia": "en:Barclays", "name": "Barclays", "operator": "Barclays Bank PLC"}}, {"type": "node", "id": 334691573, "lat": 51.5218526, "lon": -0.1359835}, {"type": "node", "id": 336637622, "lat": 51.6523856, "lon": -0.0804997}, {"type": "node", "id": 336637624, "lat": 51.652472, "lon": -0.0805085}, {"type": "node", "id": 336638994, "lat": 51.6522357, "lon": -0.0818544}, {"type": "node", "id": 336638995, "lat": 51.6522357, "lon": -0.082057}, {"type": "node", "id": 336639000, "lat": 51.6523269, "lon": -0.0818549}, {"type": "node", "id": 338463486, "lat": 51.5180368, "lon": -0.1117299}, {"type": "node", "id": 338463493, "lat": 51.5180413, "lon": -0.1118237}, {"type": "node", "id": 338472537, "lat": 51.518761, "lon": -0.1087929, "tags": {"amenity": "bank", "brand": "Santander", "brand:wikidata": "Q7420065", "brand:wikipedia": "en:Santander Bank", "name": "Santander", "opening_hours": "Mo,We-Fr 09:00-17:00, Tu 10:00-17:00"}}, {"type": "node", "id": 346343907, "lat": 51.5088959, "lon": -0.1242576}, {"type": "node", "id": 347294350, "lat": 51.5181727, "lon": -0.088092}, {"type": "node", "id": 347294420, "lat": 51.5188484, "lon": -0.0874342}, {"type": "node", "id": 347463599, "lat": 51.4751258, "lon": -0.2061332, "tags": {"amenity": "bank", "atm": "yes", "brand": "NatWest", "brand:wikidata": "Q2740021", "brand:wikipedia": "en:NatWest", "name": "NatWest"}}, {"type": "node", "id": 348407484, "lat": 51.5326949, "lon": -0.106673}, {"type": "node", "id": 348407487, "lat": 51.5325823, "lon": -0.1063847}, {"type": "node", "id": 348407489, "lat": 51.5326088, "lon": -0.1066964}, {"type": "node", "id": 348407516, "lat": 51.5326049, "lon": -0.1066583}, {"type": "node", "id": 348426443, "lat": 51.5337697, "lon": -0.1057999, "tags": {"amenity": "bank", "brand": "NatWest", "brand:wikidata": "Q2740021", "check_date": "2025-10-14", "name": "NatWest"}}, {"type": "node", "id": 348713724, "lat": 51.5341519, "lon": -0.1056061, "tags": {"addr:city": "London", "addr:country": "GB", "addr:housenumber": "19-20", "addr:postcode": "N1 0PJ", "addr:street": "Upper Street", "amenity": "bank", "atm": "yes", "brand": "Lloyds Bank", "brand:wikidata": "Q1152847", "brand:wikipedia": "en:Lloyds Bank", "check_date": "2025-10-15", "contact:website": "https://branches.lloydsbank.com/islington/19-20-upper-street", "name": "Lloyds Bank", "opening_hours": "Mo,Tu,Th,Fr 09:00-17:00, We 09:30-17:00, Sa 09:00-16:00"}}, {"type": "node", "id": 348819221, "lat": 51.5104974, "lon": -0.1285641, "tags": {"entrance": "main"}}, {"type": "node", "id": 350404884, "lat": 51.5129044, "lon": -0.1039479, "tags": {"amenity": "bank", "atm": "yes", "brand": "RBS", "brand:wikidata": "Q160126", "brand:wikipedia": "en:Royal Bank of Scotland", "name": "RBS", "official_name": "Royal Bank of Scotland"}}, {"type": "node", "id": 355416940, "lat": 51.5203731, "lon": -0.0975739}, {"type": "node", "id": 362243797, "lat": 51.4448453, "lon": -0.1518547, "tags": {"amenity": "bank", "atm": "yes", "brand": "Halifax", "brand:wikidata": "Q3310164", "brand:wikipedia": "en:Halifax (bank)", "name": "Halifax", "wheelchair": "yes"}}, {"type": "node", "id": 371563578, "lat": 51.5203418, "lon": -0.097762}, {"type": "node", "id": 373398271, "lat": 51.5142386, "lon": -0.0942083}, {"type": "node", "id": 384761523, "lat": 51.5158804, "lon": -0.1353611}, {"type": "node", "id": 385560839, "lat": 51.496148, "lon": -0.126349, "tags": {"amenity": "bank", "atm": "yes", "brand": "Lloyds Bank", "brand:wikidata": "Q1152847", "brand:wikipedia": "en:Lloyds Bank", "drive_through": "no", "name": "Lloyds Bank", "old_name": "Lloyds TSB", "wheelchair": "yes"}}, {"type": "node", "id": 387121716, "lat": 51.5092119, "lon": -0.1947188, "tags": {"addr:housenumber": "25", "addr:street": "Notting Hill Gate", "amenity": "bank", "atm": "yes", "brand": "HSBC UK", "brand:wikidata": "Q64767453", "contact:website": "https://www.hsbc.co.uk/branch-list/notting-hill-gate/", "name": "HSBC UK"}}, {"type": "node", "id": 390923942, "lat": 51.5373288, "lon": -0.1415511, "tags": {"amenity": "bank", "atm": "yes", "brand": "Santander", "brand:wikidata": "Q7420065", "brand:wikipedia": "en:Santander UK", "name": "Santander", "opening_hours": "Mo-Fr 09:30-16:30; Sa 09:30-16:00; Su off", "wheelchair": "yes"}}, {"type": "node", "id": 390925370, "lat": 51.5391102, "lon": -0.1429916, "tags": {"addr:housenumber": "193", "addr:street": "Camden High Street", "amenity": "bank", "brand": "Barclays", "brand:wikidata": "Q245343", "brand:wikipedia": "en:Barclays", "check_date": "2024-04-26", "name": "Barclays", "note": "previously American Apparel", "operator": "Barclays Bank PLC", "wheelchair": "yes"}}, {"type": "node", "id": 393523281, "lat": 51.5653701, "lon": -0.1029816, "tags": {"addr:city": "London", "addr:housenumber": "312", "addr:postcode": "N4 2AW", "addr:street": "Seven Sisters Road", "amenity": "bank", "atm": "yes", "brand": "HSBC UK", "brand:wikidata": "Q64767453", "contact:website": "https://www.hsbc.co.uk/branch-list/finsbury-park/", "drive_through": "no", "name": "HSBC UK", "opening_hours": "Mo-Fr 09:00-17:00; Sa Off; Su Off"}}, {"type": "node", "id": 410949890, "lat": 51.5562643, "lon": -0.2149538, "tags": {"addr:city": "London", "addr:street": "Cricklewood Broadway", "amenity": "bank", "atm": "yes", "brand": "Santander", "brand:wikidata": "Q7420065", "brand:wikipedia": "en:Santander Bank", "name": "Santander", "operator": "Abbey"}}, {"type": "node", "id": 410949900, "lat": 51.5560882, "lon": -0.2147564, "tags": {"addr:city": "London", "addr:street": "Cricklewood Broadway", "amenity": "bank", "brand": "Nationwide", "brand:wikidata": "Q846735", "brand:wikipedia": "en:Nationwide Building Society", "check_date": "2022-02-20", "name": "Nationwide", "operator": "Nationwide"}}, {"type": "node", "id": 418209974, "lat": 51.4609209, "lon": -0.2168381, "tags": {"addr:city": "London", "addr:housenumber": "171,173", "addr:street": "Putney High Street", "amenity": "bank", "atm": "yes", "brand": "Halifax", "brand:wikidata": "Q3310164", "brand:wikipedia": "en:Halifax (bank)", "name": "Halifax", "opening_hours": "Mo,Tu,Th,Fr 09:00-14:30", "operator": "Halifax"}}, {"type": "node", "id": 420729622, "lat": 51.4025237, "lon": 0.0152303, "tags": {"amenity": "bank", "brand": "Metro Bank", "brand:wikidata": "Q6824499", "check_date": "2023-09-17", "level": "0", "name": "Metro Bank", "opening_hours": "Mo-Sa 08:30-18:00; Su 11:00-17:00"}}, {"type": "node", "id": 420729634, "lat": 51.4034453, "lon": 0.0149335, "tags": {"addr:housenumber": "104-108", "addr:street": "High Street", "amenity": "bank", "brand": "Halifax", "brand:wikidata": "Q3310164", "check_date": "2023-10-01", "level": "0", "name": "Halifax", "opening_hours": "Mo-Fr 09:00-17:00; Sa 09:00-15:00", "payment:mastercard": "yes", "payment:visa": "yes"}}, {"type": "node", "id": 420777399, "lat": 51.4057259, "lon": 0.0154924, "tags": {"addr:street": "Market Square", "amenity": "bank", "brand": "Santander", "brand:wikidata": "Q7420065", "brand:wikipedia": "en:Santander UK", "check_date": "2023-09-17", "level": "0", "name": "Santander", "opening_hours": "Mo-Fr 09:30-16:30; Sa 09:30-16:00; Su off", "payment:mastercard": "yes", "payment:visa": "yes"}}, {"type": "node", "id": 420777401, "lat": 51.4055855, "lon": 0.0149321, "tags": {"addr:city": "Bromley", "addr:housenumber": "36", "addr:postcode": "BR1 1NF", "addr:street": "Market Square", "amenity": "bank", "brand": "Virgin Money", "brand:wikidata": "Q2527746", "name": "Virgin Money"}}, {"type": "node", "id": 420777403, "lat": 51.4055549, "lon": 0.0147992, "tags": {"amenity": "bank", "brand": "Barclays", "brand:wikidata": "Q245343", "brand:wikipedia": "en:Barclays", "name": "Barclays", "operator": "Barclays Bank PLC"}}, {"type": "node", "id": 420783182, "lat": 51.4023561, "lon": 0.0158184, "tags": {"air_conditioning": "yes", "amenity": "bank", "atm": "yes", "brand": "Nationwide", "brand:wikidata": "Q846735", "brand:wikipedia": "en:Nationwide Building Society", "check_date": "2024-09-02", "check_date:opening_hours": "2024-09-02", "currency:GBP": "yes", "drive_through": "no", "level": "0", "name": "Nationwide", "opening_hours": "Mo-Tu 09:00-16:30; We 10:00-16:30; Th-Fr 09:00-16:30; Sa 09:30-13:00; Su closed", "payment:mastercard": "yes", "payment:visa": "yes", "phone": "+44 345 266 0273", "source": "survey", "website": "https://www.nationwide.co.uk/branches/bromley/77-high-street", "wheelchair": "yes"}}, {"type": "node", "id": 429269953, "lat": 51.5296326, "lon": -0.120011, "tags": {"addr:city": "London", "addr:housenumber": "344", "addr:postcode": "WC1X 8BX", "addr:street": "Gray's Inn Road", "amenity": "bank", "atm": "yes", "brand": "Lloyds Bank", "brand:wikidata": "Q1152847", "brand:wikipedia": "en:Lloyds Bank", "contact:website": "https://branches.lloydsbank.com/london/344-gray's-inn-road", "name": "Lloyds Bank"}}, {"type": "node", "id": 434527471, "lat": 51.533151, "lon": -0.0297161}, {"type": "node", "id": 439421478, "lat": 51.4617868, "lon": -0.1676949, "tags": {"amenity": "bank", "atm": "yes", "brand": "NatWest", "brand:wikidata": "Q2740021", "brand:wikipedia": "en:NatWest", "name": "NatWest", "operator": "Natwest", "website": "https://www.natwest.com/search-results/locator/branch.html?sortcode=502101&name=Clapham%20Junction"}}, {"type": "node", "id": 442373387, "lat": 51.5145914, "lon": -0.0955668}, {"type": "node", "id": 442518405, "lat": 51.4870876, "lon": -0.0953721, "tags": {"addr:housenumber": "290", "addr:street": "Walworth Road", "amenity": "bank", "atm": "yes", "brand": "NatWest", "brand:wikidata": "Q2740021", "brand:wikipedia": "en:NatWest", "check_date": "2024-08-07", "name": "NatWest"}}, {"type": "node", "id": 444284588, "lat": 51.4906831, "lon": -0.161293, "tags": {"addr:city": "London", "addr:country": "GB", "addr:housenumber": "33-33A", "addr:postcode": "SW3 4LX", "addr:street": "King's Road", "amenity": "bank", "brand": "Lloyds Bank", "brand:wikidata": "Q1152847", "brand:wikipedia": "en:Lloyds Bank", "name": "Lloyds Bank", "opening_hours": "Mo,Tu,Th,Fr 09:00-17:00; We 09:30-17:00; Sa 09:00-16:00", "operator": "Lloyds TSB", "website": "https://branches.lloydsbank.com/london/33-33a-kings-road"}}, {"type": "node", "id": 444635317, "lat": 51.4965899, "lon": -0.1405207}, {"type": "node", "id": 444635319, "lat": 51.4968567, "lon": -0.1411202, "tags": {"addr:city": "London", "addr:country": "GB", "addr:housenumber": "98", "addr:postcode": "SW1E 5JL", "addr:street": "Victoria Street", "amenity": "bank", "atm": "yes", "brand": "Lloyds Bank", "brand:wikidata": "Q1152847", "brand:wikipedia": "en:Lloyds Bank", "check_date": "2024-02-03", "contact:website": "https://branches.lloydsbank.com/london/98-victoria-street", "level": "0", "name": "Lloyds Bank", "opening_hours": "Mo-Fr 09:00-17:00", "operator": "Lloyds TSB", "wheelchair": "yes"}}, {"type": "node", "id": 446806477, "lat": 51.5658441, "lon": -0.1356729, "tags": {"amenity": "bank", "atm": "yes", "brand": "TSB", "brand:wikidata": "Q7671560", "name": "TSB", "operator": "TSB", "website": "https://branches.tsb.co.uk/london/london-archway.html"}}, {"type": "node", "id": 448750306, "lat": 51.5625804, "lon": 0.2185535, "tags": {"addr:housenumber": "114", "addr:street": "High Street", "amenity": "bank", "atm": "yes", "brand:wikidata": "Q7420065", "name": "Santander", "operator": "Santander", "wheelchair": "yes"}}, {"type": "node", "id": 448750314, "lat": 51.5625062, "lon": 0.2189625, "tags": {"amenity": "bank", "brand": "NatWest", "brand:wikidata": "Q2740021", "name": "NatWest", "operator": "NatWest", "website": "https://www.natwest.com/search-results/locator/branch.html?sortcode=601115&name=Hornchurch", "wheelchair": "yes"}}, {"type": "node", "id": 448750323, "lat": 51.562392, "lon": 0.2196652, "tags": {"amenity": "bank", "atm": "yes", "brand": "Barclays", "brand:wikidata": "Q245343", "name": "Barclays", "operator": "Barclays Bank PLC"}}, {"type": "node", "id": 449109106, "lat": 51.5963299, "lon": -0.1094703, "tags": {"addr:city": "London", "addr:housenumber": "14", "addr:postcode": "N22 6DS", "addr:street": "The Broadway", "amenity": "bank", "atm": "yes", "brand": "NatWest", "brand:wikidata": "Q2740021", "brand:wikipedia": "en:NatWest", "name": "NatWest", "source": "local_knowledge", "toilets:wheelchair": "no", "website": "https://www.natwest.com/search-results/locator/branch.html?sortcode=602423&name=Wood%20Green", "wheelchair": "yes"}}, {"type": "node", "id": 452218997, "lat": 51.5135831, "lon": -0.1443539, "tags": {"amenity": "bank", "brand": "Barclays", "brand:wikidata": "Q245343", "brand:wikipedia": "en:Barclays", "name": "Barclays", "operator": "Barclays Bank PLC"}}, {"type": "node", "id": 452433523, "lat": 51.5188006, "lon": -0.1082146, "tags": {"amenity": "bank", "atm": "yes", "brand": "Barclays", "brand:wikidata": "Q245343", "brand:wikipedia": "en:Barclays", "name": "Barclays", "operator": "Barclays Bank PLC"}}, {"type": "node", "id": 457102339, "lat": 51.5897853, "lon": -0.2213562, "tags": {"addr:country": "GB", "amenity": "bank", "atm": "yes", "brand": "Lloyds Bank", "brand:wikidata": "Q1152847", "brand:wikipedia": "en:Lloyds Bank", "contact:website": "https://branches.lloydsbank.com/hendon/1-3-finchley-lane", "name": "Lloyds Bank", "operator": "Lloyds Bank", "source": "Walking Papers"}}, {"type": "node", "id": 464790904, "lat": 51.514503, "lon": -0.1415639}, {"type": "node", "id": 469341861, "lat": 51.5863833, "lon": 0.1995993, "tags": {"amenity": "bank", "atm": "yes", "brand": "Lloyds Bank", "brand:wikidata": "Q1152847", "brand:wikipedia": "en:Lloyds Bank", "name": "Lloyds Bank"}}, {"type": "node", "id": 469342134, "lat": 51.5861002, "lon": 0.2001098}, {"type": "node", "id": 475396917, "lat": 51.5161285, "lon": -0.0841194}, {"type": "node", "id": 482835023, "lat": 51.4881096, "lon": -0.095477, "tags": {"amenity": "bank", "atm": "yes", "brand": "Nationwide", "brand:wikidata": "Q846735", "brand:wikipedia": "en:Nationwide Building Society", "name": "Nationwide"}}, {"type": "node", "id": 482835049, "lat": 51.4858983, "lon": -0.0939834, "tags": {"amenity": "bank", "atm": "yes", "brand": "Santander", "brand:wikidata": "Q7420065", "brand:wikipedia": "en:Santander Bank", "check_date": "2025-08-30", "name": "Santander"}}, {"type": "node", "id": 489826648, "lat": 51.5062861, "lon": -0.1512263, "tags": {"amenity": "bank", "name": "HSBC Premier", "operator": "HSBC"}}, {"type": "node", "id": 490173913, "lat": 51.5144116, "lon": -0.1279374}, {"type": "node", "id": 494928748, "lat": 51.5193781, "lon": -0.1328551}, {"type": "node", "id": 497215752, "lat": 51.5230113, "lon": -0.1364472}, {"type": "node", "id": 498847728, "lat": 51.5127269, "lon": -0.1303331, "tags": {"entrance": "main"}}, {"type": "node", "id": 510163154, "lat": 51.4901345, "lon": -0.0966317, "tags": {"addr:housenumber": "177-179", "addr:street": "Walworth Road", "amenity": "bank", "atm": "yes", "bank": "credit_union", "name": "London Mutual Credit Union"}}, {"type": "node", "id": 513784365, "lat": 51.5156621, "lon": -0.1643574}, {"type": "node", "id": 529096609, "lat": 51.5948213, "lon": -0.0693394, "tags": {"amenity": "bank", "brand": "Lloyds Bank", "brand:wikidata": "Q1152847", "brand:wikipedia": "en:Lloyds Bank", "name": "Lloyds Bank"}}, {"type": "node", "id": 529116471, "lat": 51.5924127, "lon": -0.0695431, "tags": {"amenity": "bank", "brand": "HSBC UK", "brand:wikidata": "Q64767453", "name": "HSBC UK", "not:brand:wikidata": "Q190464"}}, {"type": "node", "id": 529116473, "lat": 51.5922923, "lon": -0.0695451, "tags": {"amenity": "bank", "brand": "Halifax", "brand:wikidata": "Q3310164", "name": "Halifax"}}, {"type": "node", "id": 529116477, "lat": 51.5930945, "lon": -0.0698228, "tags": {"amenity": "bank", "brand": "Nationwide", "brand:wikidata": "Q846735", "check_date": "2022-02-20", "name": "Nationwide"}}, {"type": "node", "id": 529116478, "lat": 51.5928373, "lon": -0.0695021, "tags": {"addr:city": "London", "addr:housenumber": "472", "addr:postcode": "N17 9JX", "addr:street": "High Road", "addr:suburb": "Tottenham", "amenity": "bank", "brand": "Santander", "brand:wikidata": "Q7420065", "check_date": "2022-12-13", "name": "Santander", "opening_hours": "Mo-Fr 09:30-15:00; Sa,Su off", "wheelchair": "yes"}}, {"type": "node", "id": 547322939, "lat": 51.5770411, "lon": -0.3709306, "tags": {"amenity": "bank", "atm": "yes", "brand:wikidata": "Q7420065", "level": "0", "name": "Santander"}}, {"type": "node", "id": 548704509, "lat": 51.5833552, "lon": -0.3144164}, {"type": "node", "id": 554976927, "lat": 51.5297234, "lon": -0.1241036, "tags": {"addr:city": "London", "addr:housenumber": "31", "addr:postcode": "NW1 2ST", "addr:street": "Euston Road", "amenity": "bank", "atm": "yes", "brand": "HSBC UK", "brand:wikidata": "Q64767453", "check_date": "2024-09-21", "contact:website": "https://www.hsbc.co.uk/branch-list/kings-cross/", "level": "0", "name": "HSBC UK", "opening_hours": "Mo-Fr 9:30-16:30", "phone": "+44 3457 404 404"}}, {"type": "node", "id": 565439685, "lat": 51.5128928, "lon": -0.1134315, "tags": {"addr:housenumber": "203", "addr:street": "Strand", "amenity": "bank", "brand": "Yorkshire Building Society", "brand:wikidata": "Q12073381", "brand:wikipedia": "en:Yorkshire Building Society", "name": "Yorkshire Building Society"}}, {"type": "node", "id": 566481304, "lat": 51.6174007, "lon": -0.1770067, "tags": {"addr:city": "London", "addr:housenumber": "841", "addr:postcode": "N12 8PX", "addr:street": "High Road", "amenity": "bank", "atm": "yes", "brand": "Lloyds Bank", "brand:wikidata": "Q1152847", "contact:website": "https://branches.lloydsbank.com/north-finchley/841-high-road", "name": "Lloyds Bank", "operator": "LloydsTSB", "source": "local_knowledge"}}, {"type": "node", "id": 571285794, "lat": 51.5418662, "lon": 0.0003098, "tags": {"addr:city": "London", "addr:housenumber": "56-58", "addr:street": "The Mall", "amenity": "bank", "atm": "yes", "brand": "Barclays", "brand:wikidata": "Q245343", "brand:wikipedia": "en:Barclays", "name": "Barclays", "operator": "Barclays Bank PLC"}}, {"type": "node", "id": 583329995, "lat": 51.4628513, "lon": -0.2162301, "tags": {"amenity": "atm", "brand": "Lloyds Bank", "brand:wikidata": "Q1152847", "brand:wikipedia": "en:Lloyds Bank", "cash_in": "no", "indoor": "no", "machines": "2", "operator": "Lloyds Bank", "operator:wikidata": "Q1152847"}}, {"type": "node", "id": 588792448, "lat": 51.500297, "lon": -0.14947, "tags": {"addr:housenumber": "19", "addr:street": "Grosvenor Place", "amenity": "bank", "brand": "HSBC UK", "brand:wikidata": "Q64767453", "name": "HSBC UK", "not:brand:wikidata": "Q190464"}}, {"type": "node", "id": 595301429, "lat": 51.509497, "lon": -0.133129, "tags": {"amenity": "bank", "atm": "yes", "brand": "RBS", "brand:wikidata": "Q160126", "brand:wikipedia": "en:Royal Bank of Scotland", "name": "RBS", "official_name": "Royal Bank of Scotland", "wheelchair": "yes"}}, {"type": "node", "id": 600924677, "lat": 51.5110152, "lon": -0.1203509, "tags": {"amenity": "bank", "atm": "yes", "brand": "Barclays", "brand:wikidata": "Q245343", "brand:wikipedia": "en:Barclays", "name": "Barclays", "operator": "Barclays Bank PLC", "wheelchair": "yes"}}, {"type": "node", "id": 603130942, "lat": 51.5113446, "lon": -0.1248247, "tags": {"amenity": "bank", "atm": "yes", "brand": "HSBC UK", "brand:wikidata": "Q64767453", "check_date": "2022-06-27", "contact:website": "https://www.hsbc.co.uk/branch-list/covent-garden/", "name": "HSBC UK", "opening_hours": "Mo-Fr 09:30-16:30", "wheelchair": "yes"}}, {"type": "node", "id": 609782327, "lat": 51.5124652, "lon": -0.1039466, "tags": {"addr:city": "London", "addr:housenumber": "31", "addr:street": "New Bridge Street", "amenity": "bank", "atm": "yes", "brand": "NatWest", "brand:wikidata": "Q2740021", "brand:wikipedia": "en:NatWest", "name": "NatWest"}}, {"type": "node", "id": 612420251, "lat": 51.5144783, "lon": -0.1414981}, {"type": "node", "id": 618653418, "lat": 51.5346253, "lon": -0.1051977, "tags": {"amenity": "bank", "atm": "yes", "brand": "Nationwide", "brand:wikidata": "Q846735", "brand:wikipedia": "en:Nationwide Building Society", "check_date": "2025-10-15", "check_date:opening_hours": "2024-09-02", "name": "Nationwide", "opening_hours": "Mo-Tu 09:00-16:30; We 10:00-16:30; Th-Fr 09:00-16:30; Sa 09:00-12:00; Su closed", "phone": "+44 345 266 1581", "website": "https://www.nationwide.co.uk/branches/islington/32-33-upper-street"}}, {"type": "node", "id": 622543703, "lat": 51.5067648, "lon": -0.1431146, "tags": {"amenity": "bank", "brand": "HSBC UK", "brand:wikidata": "Q64767453", "check_date": "2025-06-18", "contact:website": "https://www.hsbc.co.uk/branch-list/piccadilly-london/", "name": "HSBC UK"}}, {"type": "node", "id": 624046571, "lat": 51.5116659, "lon": -0.1315749, "tags": {"entrance": "main"}}, {"type": "node", "id": 632929269, "lat": 51.4108421, "lon": -0.3053821, "tags": {"amenity": "bank", "brand": "Barclays", "brand:wikidata": "Q245343", "check_date": "2025-06-06", "name": "Barclays", "operator": "Barclays", "wheelchair": "yes"}}, {"type": "node", "id": 649910619, "lat": 51.5156716, "lon": -0.1640986}, {"type": "node", "id": 659653197, "lat": 51.5096016, "lon": -0.1448474}, {"type": "node", "id": 660322644, "lat": 51.5333033, "lon": -0.0297469}, {"type": "node", "id": 660899261, "lat": 51.5608953, "lon": -0.0740378, "tags": {"amenity": "bank", "atm": "yes", "brand": "Santander", "brand:wikidata": "Q7420065", "brand:wikipedia": "en:Santander Bank", "name": "Santander"}}, {"type": "node", "id": 666475917, "lat": 51.5145966, "lon": -0.0942059}, {"type": "node", "id": 669946809, "lat": 51.5644976, "lon": -0.3532709, "tags": {"addr:street": "Northolt Road", "amenity": "bank", "brand": "Barclays", "brand:wikidata": "Q245343", "building:levels": "3", "name": "Barclays"}}, {"type": "node", "id": 675849633, "lat": 51.5071176, "lon": -0.1396024, "tags": {"addr:housenumber": "31", "addr:street": "St James's Street", "amenity": "bank", "atm": "yes", "brand": "Barclays", "brand:wikidata": "Q245343", "brand:wikipedia": "en:Barclays", "name": "Barclays", "operator": "Barclays Bank PLC"}}, {"type": "node", "id": 675936469, "lat": 51.5092215, "lon": -0.1358915}, {"type": "node", "id": 676020130, "lat": 51.5739049, "lon": -0.0733665, "tags": {"amenity": "bank", "atm": "yes", "brand": "NatWest", "brand:wikidata": "Q2740021", "brand:wikipedia": "en:NatWest", "name": "NatWest", "operator": "NatWest Bank", "wheelchair": "no"}}, {"type": "node", "id": 677228897, "lat": 51.5632625, "lon": -0.3550346, "tags": {"addr:street": "Northolt Road", "amenity": "bank", "brand:wikidata": "Q7420065", "name": "Santander"}}, {"type": "node", "id": 693029940, "lat": 51.4965982, "lon": -0.1412289}, {"type": "node", "id": 693186624, "lat": 51.5091595, "lon": -0.1369016}, {"type": "node", "id": 702653895, "lat": 51.5177006, "lon": -0.1216467}, {"type": "node", "id": 702653896, "lat": 51.5176394, "lon": -0.1217913}, {"type": "node", "id": 702735037, "lat": 51.511096, "lon": -0.087252, "tags": {"addr:city": "London", "addr:country": "GB", "addr:housenumber": "18", "addr:postcode": "EC4N 7BP", "addr:street": "King William Street", "amenity": "bank", "branch": "Totta", "brand": "Santander", "brand:wikidata": "Q7420065", "name": "Santander", "opening_hours": "Mo-Fr 09:30-16:00", "phone": "+44 20 7929 2225"}}, {"type": "node", "id": 703361622, "lat": 51.5179409, "lon": -0.1175918, "tags": {"amenity": "bank", "brand": "Skipton Building Society", "brand:website": "https://www.skipton.co.uk/", "brand:wikidata": "Q16931747", "check_date": "2023-09-24", "name": "Skipton Building Society", "opening_hours": "Mo-Tu, Th-Fr 09:30-16:30; We 10:00-16:30; Sa 09:30-12:00"}}, {"type": "node", "id": 703382395, "lat": 51.5182045, "lon": -0.1159999, "tags": {"amenity": "bank", "atm": "yes", "brand": "Halifax", "brand:wikidata": "Q3310164", "brand:wikipedia": "en:Halifax (bank)", "name": "Halifax"}}, {"type": "node", "id": 719511020, "lat": 51.6169051, "lon": -0.1765626, "tags": {"addr:city": "London", "addr:street": "High Road", "amenity": "bank", "atm": "yes", "brand": "Barclays", "brand:wikidata": "Q245343", "name": "Barclays", "opening_hours": "Mo,Tu,Th 09:30-15:30; We 10:00-15:30; Sa 09:30-13:30", "operator": "Barclays Bank PLC"}}, {"type": "node", "id": 719511093, "lat": 51.6166088, "lon": -0.1765772, "tags": {"addr:city": "London", "addr:housenumber": "804", "addr:postcode": "N12 9PY", "addr:street": "High Road", "amenity": "bank", "atm": "yes", "brand": "Halifax", "brand:wikidata": "Q3310164", "name": "Halifax", "opening_hours": "Mo-Fr 09:00-15:30", "operator": "Halifax"}}, {"type": "node", "id": 735157369, "lat": 51.5167162, "lon": -0.1296266}, {"type": "node", "id": 735157370, "lat": 51.5166813, "lon": -0.1297484}, {"type": "node", "id": 737316654, "lat": 51.5227821, "lon": -0.0873309}, {"type": "node", "id": 737316662, "lat": 51.5227325, "lon": -0.0876826}, {"type": "node", "id": 739676772, "lat": 51.5100643, "lon": -0.0819502}, {"type": "node", "id": 748074039, "lat": 51.5137364, "lon": -0.1018968, "tags": {"amenity": "bank", "brand": "TSB", "brand:wikidata": "Q7671560", "brand:wikipedia": "en:TSB Bank (United Kingdom)", "name": "TSB"}}, {"type": "node", "id": 774014724, "lat": 51.5377005, "lon": -0.1929651}, {"type": "node", "id": 774014746, "lat": 51.5375971, "lon": -0.1928472}, {"type": "node", "id": 774014815, "lat": 51.5375215, "lon": -0.1927591}, {"type": "node", "id": 819864697, "lat": 51.5473148, "lon": -0.4803783, "tags": {"addr:city": "Uxbridge", "addr:country": "GB", "addr:housenumber": "142", "addr:postcode": "UB8 1JX", "addr:street": "High Street", "amenity": "bank", "atm": "yes", "brand": "Barclays", "brand:wikidata": "Q245343", "brand:wikipedia": "en:Barclays", "check_date": "2024-08-11", "name": "Barclays", "operator": "Barclays Bank PLC"}}, {"type": "node", "id": 823341237, "lat": 51.4824405, "lon": -0.1999712, "tags": {"addr:country": "GB", "addr:housenumber": "417", "addr:street": "North End Road", "amenity": "bank", "atm": "yes", "brand": "Lloyds Bank", "brand:wikidata": "Q1152847", "brand:wikipedia": "en:Lloyds Bank", "contact:website": "https://branches.lloydsbank.com/fulham/417-north-end-road", "name": "Lloyds Bank"}}, {"type": "node", "id": 823341251, "lat": 51.4823294, "lon": -0.1998744, "tags": {"addr:housenumber": "421", "addr:street": "North End Road", "amenity": "bank", "atm": "yes", "brand": "Santander", "brand:wikidata": "Q7420065", "brand:wikipedia": "en:Santander Bank", "name": "Santander", "operator": "Santander"}}, {"type": "node", "id": 826724020, "lat": 51.5091219, "lon": -0.1236422}, {"type": "node", "id": 826724118, "lat": 51.5092753, "lon": -0.1238702}, {"type": "node", "id": 826724158, "lat": 51.509384, "lon": -0.1236381}, {"type": "node", "id": 826724212, "lat": 51.5089548, "lon": -0.1241474}, {"type": "node", "id": 826724237, "lat": 51.5091038, "lon": -0.1238727}, {"type": "node", "id": 826724250, "lat": 51.5093171, "lon": -0.1235491}, {"type": "node", "id": 826724289, "lat": 51.5092035, "lon": -0.123482}, {"type": "node", "id": 851249883, "lat": 51.5088757, "lon": -0.124299}, {"type": "node", "id": 851249886, "lat": 51.5090977, "lon": -0.1238662}, {"type": "node", "id": 851249905, "lat": 51.5090442, "lon": -0.1239692}, {"type": "node", "id": 852142203, "lat": 51.5102122, "lon": -0.145634, "tags": {"amenity": "bank", "brand": "Zenith Bank", "brand:wikidata": "Q5978240", "brand:wikipedia": "en:Zenith Bank", "name": "Zenith Bank"}}, {"type": "node", "id": 852142206, "lat": 51.5104778, "lon": -0.1458853, "tags": {"amenity": "bank", "check_date": "2025-08-15", "name": "First Abu Dhabi Bank"}}, {"type": "node", "id": 857556964, "lat": 51.5092813, "lon": -0.12358}, {"type": "node", "id": 865145196, "lat": 51.510805, "lon": -0.0852235}, {"type": "node", "id": 868373393, "lat": 51.4701768, "lon": -0.0692016}, {"type": "node", "id": 868373564, "lat": 51.4702706, "lon": -0.0688351}, {"type": "node", "id": 868373646, "lat": 51.4701805, "lon": -0.0687758}, {"type": "node", "id": 868373739, "lat": 51.4700868, "lon": -0.0691423}, {"type": "node", "id": 870407631, "lat": 51.4722234, "lon": -0.0698455}, {"type": "node", "id": 870407729, "lat": 51.4720866, "lon": -0.0698292}, {"type": "node", "id": 870407779, "lat": 51.4722227, "lon": -0.0703629}, {"type": "node", "id": 870407895, "lat": 51.4720756, "lon": -0.0703275}, {"type": "node", "id": 885342144, "lat": 51.6520951, "lon": -0.0834806, "tags": {"amenity": "bank", "brand": "TSB", "brand:wikidata": "Q7671560", "brand:wikipedia": "en:TSB Bank (United Kingdom)", "name": "TSB", "opening_hours": "Mo,Tu,Th,Fr 09:00-17:00; We 10:00-17:00; Sa 09:00-13:00", "website": "https://branches.tsb.co.uk/enfield/enfield-22-24-church-street.html", "wheelchair": "yes"}}, {"type": "node", "id": 885354268, "lat": 51.6519385, "lon": -0.0808987, "tags": {"amenity": "bank", "brand": "HSBC UK", "brand:wikidata": "Q64767453", "brand:wikipedia": "en:HSBC", "name": "HSBC UK", "toilets:wheelchair": "no", "wheelchair": "yes"}}, {"type": "node", "id": 885355373, "lat": 51.6519769, "lon": -0.0818219, "tags": {"amenity": "bank", "atm": "yes", "brand": "NatWest", "brand:wikidata": "Q2740021", "brand:wikipedia": "en:NatWest", "name": "NatWest", "toilets:wheelchair": "no", "website": "https://www.natwest.com/search-results/locator/branch.html?sortcode=600738&name=Enfield", "wheelchair": "yes"}}, {"type": "node", "id": 885384406, "lat": 51.652269, "lon": -0.0827032, "tags": {"addr:city": "Enfield", "addr:housenumber": "1-3", "addr:parentstreet": "Church Street", "addr:postcode": "EN2 6AA", "addr:substreet": "Market Chambers", "amenity": "bank", "brand": "Metro Bank", "brand:wikidata": "Q6824499", "contact:website": "https://www.metrobankonline.co.uk/store-locator/stores/enfield/", "name": "Metro Bank", "opening_hours": "Mo-Sa 08:30-18:00; Su 11:00-17:00"}}, {"type": "node", "id": 914580209, "lat": 51.53943, "lon": -0.1955994}, {"type": "node", "id": 914580217, "lat": 51.5395853, "lon": -0.1954489}, {"type": "node", "id": 914580220, "lat": 51.5394893, "lon": -0.1956669}, {"type": "node", "id": 914580222, "lat": 51.539526, "lon": -0.1953814}, {"type": "node", "id": 915100788, "lat": 51.5812586, "lon": -0.3338192, "tags": {"entrance": "main"}}, {"type": "node", "id": 915100793, "lat": 51.5815164, "lon": -0.3348785, "tags": {"addr:city": "Harrow", "addr:country": "GB", "addr:housenumber": "26-28", "addr:street": "St Ann's Road", "amenity": "bank", "brand": "HSBC UK", "brand:wikidata": "Q64767453", "check_date": "2025-07-06", "contact:website": "https://www.hsbc.co.uk/branch-list/harrow/", "name": "HSBC UK", "opening_hours": "Tu 09:30-17:00; Sa 09:30-13:00; Mo,We-Fr 09:00-17:00", "source:name": "survey", "wheelchair": "yes"}}, {"type": "node", "id": 915100795, "lat": 51.57987, "lon": -0.334237, "tags": {"amenity": "bank", "atm": "yes", "brand": "Barclays", "brand:wikidata": "Q245343", "brand:wikipedia": "en:Barclays", "check_date": "2025-03-01", "currency:GBP": "yes", "drive_through": "no", "internet_access": "wlan", "internet_access:fee": "customers", "level": "0", "name": "Barclays", "operator": "Barclays Bank PLC", "source": "survey", "wheelchair": "yes"}}, {"type": "node", "id": 915579206, "lat": 51.5402907, "lon": -0.1963764}, {"type": "node", "id": 915579214, "lat": 51.5403206, "lon": -0.1963073}, {"type": "node", "id": 915579239, "lat": 51.5404195, "lon": -0.1964165}, {"type": "node", "id": 915579250, "lat": 51.5402583, "lon": -0.1964991}, {"type": "node", "id": 915579264, "lat": 51.5404205, "lon": -0.1964452}, {"type": "node", "id": 915579273, "lat": 51.540362, "lon": -0.1966096}, {"type": "node", "id": 918756823, "lat": 51.4706858, "lon": -0.0686238}, {"type": "node", "id": 918757139, "lat": 51.4706887, "lon": -0.0689391}, {"type": "node", "id": 918757773, "lat": 51.4706301, "lon": -0.0688962}, {"type": "node", "id": 918758832, "lat": 51.4707531, "lon": -0.0686743}, {"type": "node", "id": 919681331, "lat": 51.4691169, "lon": -0.067779}, {"type": "node", "id": 919681335, "lat": 51.469278, "lon": -0.067896}, {"type": "node", "id": 919681392, "lat": 51.4691243, "lon": -0.0677958}, {"type": "node", "id": 923020549, "lat": 51.4691627, "lon": -0.0675264}, {"type": "node", "id": 930043384, "lat": 51.5124495, "lon": -0.3061578, "tags": {"amenity": "bank", "atm": "yes", "brand": "Santander", "brand:wikidata": "Q7420065", "brand:wikipedia": "en:Santander Bank", "check_date": "2025-10-03", "level": "0", "name": "Santander", "opening_hours": "Mo-Fr 09:30-15:00; Sa 09:30-12:30; Su off", "operator": "Santander", "phone": "+443306123123", "website": "https://www.santander.co.uk", "wheelchair": "yes"}}, {"type": "node", "id": 930043390, "lat": 51.5142628, "lon": -0.3014575, "tags": {"amenity": "bank", "brand": "NatWest", "brand:wikidata": "Q2740021", "brand:wikipedia": "en:NatWest", "check_date": "2024-12-20", "name": "NatWest", "operator": "NatWest", "website": "https://www.natwest.com/search-results/locator/branch.html?sortcode=600710&name=Ealing"}}, {"type": "node", "id": 930043392, "lat": 51.5136982, "lon": -0.3027719, "tags": {"amenity": "bank", "atm": "yes", "brand": "Barclays", "brand:wikidata": "Q245343", "brand:wikipedia": "en:Barclays", "check_date": "2025-01-19", "level": "0", "name": "Barclays", "opening_hours": "Mo-Tu,Th-Fr 09:30-16:30; We 10:00-16:30; Sa 09:30-14:30; Su off", "operator": "Barclays Bank PLC", "wheelchair": "yes"}}, {"type": "node", "id": 963509376, "lat": 51.5050628, "lon": -0.0899498}, {"type": "node", "id": 963509715, "lat": 51.5051309, "lon": -0.0900352}, {"type": "node", "id": 963509813, "lat": 51.5050688, "lon": -0.0902534}, {"type": "node", "id": 963509975, "lat": 51.505091, "lon": -0.0901232}, {"type": "node", "id": 963510065, "lat": 51.5051549, "lon": -0.0902002}, {"type": "node", "id": 963510144, "lat": 51.5049877, "lon": -0.0901938}, {"type": "node", "id": 965098742, "lat": 51.4734469, "lon": -0.0703377}, {"type": "node", "id": 965098769, "lat": 51.4736601, "lon": -0.0703332}, {"type": "node", "id": 965098807, "lat": 51.4734748, "lon": -0.0701998}, {"type": "node", "id": 965098842, "lat": 51.4735926, "lon": -0.0704238}, {"type": "node", "id": 973036684, "lat": 51.5112789, "lon": -0.1234711}, {"type": "node", "id": 973036688, "lat": 51.5112926, "lon": -0.1234402, "tags": {"amenity": "atm", "brand": "NatWest", "brand:wikidata": "Q2740021", "check_date": "2021-08-13", "drive_through": "no", "operator": "NatWest", "operator:wikidata": "Q2740021"}}, {"type": "node", "id": 973869370, "lat": 51.4508725, "lon": 0.0570668, "tags": {"addr:city": "London", "addr:housenumber": "165-169", "addr:postcode": "SE9 1TT", "addr:street": "Eltham High Street", "addr:suburb": "Eltham", "amenity": "bank", "atm": "yes", "brand": "Halifax", "brand:wikidata": "Q3310164", "name": "Halifax", "opening_hours": "Mo-Tu 09:00-17:00; We 09:30-17:00; Th-Fr 09:00-17:00; Sa 09:00-13:00", "operator": "halifax"}}, {"type": "node", "id": 991123236, "lat": 51.5154258, "lon": -0.0844975}, {"type": "node", "id": 1007963107, "lat": 51.5297042, "lon": -0.269499, "tags": {"amenity": "atm", "brand": "NatWest", "brand:wikidata": "Q2740021", "operator": "NatWest", "operator:wikidata": "Q2740021"}}, {"type": "node", "id": 1010802646, "lat": 51.5362438, "lon": -0.2456761, "tags": {"addr:city": "London", "amenity": "bank", "brand": "Santander", "brand:wikidata": "Q7420065", "check_date": "2024-05-15", "level": "0", "name": "Santander", "operator": "Santander"}}, {"type": "node", "id": 1011616834, "lat": 51.5586951, "lon": -0.1203053, "tags": {"amenity": "bank", "brand": "NatWest", "brand:wikidata": "Q2740021", "brand:wikipedia": "en:NatWest", "name": "NatWest", "website": "https://www.natwest.com/search-results/locator/branch.html?sortcode=601114&name=Holloway%20Road"}}, {"type": "node", "id": 1021230336, "lat": 51.4803789, "lon": -0.1962845}, {"type": "node", "id": 1021230431, "lat": 51.4803311, "lon": -0.1961932, "tags": {"amenity": "atm"}}, {"type": "node", "id": 1021230504, "lat": 51.4803797, "lon": -0.1960643}, {"type": "node", "id": 1021230567, "lat": 51.4803425, "lon": -0.196215, "tags": {"operator": "NatWest"}}, {"type": "node", "id": 1021230573, "lat": 51.4803117, "lon": -0.1961561}, {"type": "node", "id": 1021230597, "lat": 51.4804469, "lon": -0.1961928}, {"type": "node", "id": 1029696442, "lat": 51.5142114, "lon": -0.3016781}, {"type": "node", "id": 1029696509, "lat": 51.5144838, "lon": -0.3019827}, {"type": "node", "id": 1029696633, "lat": 51.5144154, "lon": -0.3019164}, {"type": "node", "id": 1029696782, "lat": 51.514218, "lon": -0.3016022}, {"type": "node", "id": 1029696786, "lat": 51.5144181, "lon": -0.3018792}, {"type": "node", "id": 1029696975, "lat": 51.5144932, "lon": -0.3018435}, {"type": "node", "id": 1029697002, "lat": 51.5144289, "lon": -0.3019475}, {"type": "node", "id": 1031517653, "lat": 51.5930682, "lon": 0.0256845, "tags": {"addr:city": "London", "addr:housenumber": "130", "addr:postcode": "E18 1AZ", "addr:street": "George Lane", "amenity": "bank", "brand": "Barclays", "brand:wikidata": "Q245343", "brand:wikipedia": "en:Barclays", "name": "Barclays", "operator": "Barclays Bank PLC"}}, {"type": "node", "id": 1031517682, "lat": 51.5925383, "lon": 0.0263529, "tags": {"addr:street": "George Lane", "amenity": "bank", "brand": "NatWest", "brand:wikidata": "Q2740021", "brand:wikipedia": "en:NatWest", "name": "NatWest"}}, {"type": "node", "id": 1039500263, "lat": 51.5143424, "lon": -0.301616}, {"type": "node", "id": 1039500559, "lat": 51.5143891, "lon": -0.3016624}, {"type": "node", "id": 1039500642, "lat": 51.5143917, "lon": -0.3018527}, {"type": "node", "id": 1039500643, "lat": 51.5142355, "lon": -0.3017852}, {"type": "node", "id": 1039500975, "lat": 51.5142146, "lon": -0.3017421}, {"type": "node", "id": 1039501245, "lat": 51.514392, "lon": -0.3016263}, {"type": "node", "id": 1039501347, "lat": 51.5143967, "lon": -0.3018699}, {"type": "node", "id": 1039502245, "lat": 51.5143403, "lon": -0.3016602}, {"type": "node", "id": 1039502541, "lat": 51.5142229, "lon": -0.3017659}, {"type": "node", "id": 1039502658, "lat": 51.5142103, "lon": -0.301718}, {"type": "node", "id": 1039503187, "lat": 51.5142504, "lon": -0.3017997}, {"type": "node", "id": 1052109142, "lat": 51.5050545, "lon": -0.0892154}, {"type": "node", "id": 1052109224, "lat": 51.5051123, "lon": -0.089368}, {"type": "node", "id": 1052109283, "lat": 51.5049185, "lon": -0.0893386}, {"type": "node", "id": 1052109522, "lat": 51.5049448, "lon": -0.0893137}, {"type": "node", "id": 1054485791, "lat": 51.5044872, "lon": -0.0902196}, {"type": "node", "id": 1054486046, "lat": 51.5044242, "lon": -0.090292}, {"type": "node", "id": 1054486538, "lat": 51.5043267, "lon": -0.0900723}, {"type": "node", "id": 1054486669, "lat": 51.504387, "lon": -0.090001}, {"type": "node", "id": 1054486803, "lat": 51.504392, "lon": -0.0902148}, {"type": "node", "id": 1075888031, "lat": 51.4004035, "lon": -0.2555245, "tags": {"amenity": "bank", "atm": "yes", "brand": "Nationwide", "brand:wikidata": "Q846735", "check_date": "2024-09-02", "check_date:opening_hours": "2024-09-02", "name": "Nationwide", "opening_hours": "Mo-Tu 09:00-16:30; We-Th closed; Fr 09:00-16:30; Sa 09:00-12:00; Su closed", "phone": "+44 345 266 0269", "website": "https://www.nationwide.co.uk/branches/new-malden/114-high-street"}}, {"type": "node", "id": 1081503926, "lat": 51.5136999, "lon": -0.0922085}, {"type": "node", "id": 1081503930, "lat": 51.5137355, "lon": -0.0921496}, {"type": "node", "id": 1082110109, "lat": 51.5927704, "lon": 0.0262719, "tags": {"addr:street": "George Lane", "amenity": "bank", "atm": "yes", "brand": "Nationwide", "brand:wikidata": "Q846735", "brand:wikipedia": "en:Nationwide Building Society", "check_date": "2024-09-02", "check_date:opening_hours": "2024-09-02", "name": "Nationwide", "opening_hours": "Mo-Tu 09:00-16:30; We 10:00-16:30; Th-Fr 09:00-16:30; Sa 09:00-12:00; Su closed", "phone": "+44 345 266 0633", "website": "https://www.nationwide.co.uk/branches/south-woodford/123-george-lane"}}, {"type": "node", "id": 1093693897, "lat": 51.5047232, "lon": -0.090358}, {"type": "node", "id": 1093694936, "lat": 51.5046882, "lon": -0.0905498}, {"type": "node", "id": 1100604247, "lat": 51.3623654, "lon": -0.19286, "tags": {"amenity": "bank", "atm": "yes", "brand": "HSBC UK", "brand:wikidata": "Q64767453", "contact:website": "https://www.hsbc.co.uk/branch-list/sutton-town-square/", "name": "HSBC UK", "opening_hours": "Mo-Fr 09:30-16:30; Sa 09:30-13:00"}}, {"type": "node", "id": 1103266399, "lat": 51.5045645, "lon": -0.0904594}, {"type": "node", "id": 1103266409, "lat": 51.5046496, "lon": -0.0906841}, {"type": "node", "id": 1117170166, "lat": 51.5138333, "lon": -0.3004879}, {"type": "node", "id": 1117274855, "lat": 51.513929, "lon": -0.3012031, "tags": {"addr:housenumber": "65; 64", "addr:street": "The Mall", "amenity": "bank", "brand": "Halifax", "brand:wikidata": "Q3310164", "brand:wikipedia": "en:Halifax (bank)", "check_date": "2024-12-20", "level": "0", "name": "Halifax"}}, {"type": "node", "id": 1126101170, "lat": 51.5156455, "lon": -0.1399268}, {"type": "node", "id": 1126101211, "lat": 51.5158659, "lon": -0.140039}, {"type": "node", "id": 1126101357, "lat": 51.5156215, "lon": -0.1399503}, {"type": "node", "id": 1126101389, "lat": 51.5158535, "lon": -0.1400046}, {"type": "node", "id": 1132744103, "lat": 51.3592576, "lon": -0.1499518, "tags": {"addr:city": "Wallington", "addr:housenumber": "54", "addr:postcode": "SM6 0NJ", "addr:street": "Woodcote Road", "amenity": "bank", "atm": "yes", "brand": "HSBC UK", "brand:wikidata": "Q64767453", "brand:wikipedia": "en:HSBC", "contact:website": "https://www.hsbc.co.uk/branch-list/wallington/", "name": "HSBC UK"}}, {"type": "node", "id": 1132744202, "lat": 51.3595142, "lon": -0.1500528, "tags": {"addr:city": "Wallington", "addr:housenumber": "40", "addr:postcode": "SM6 0NR", "addr:street": "Woodcote Road", "amenity": "bank", "atm": "yes", "brand": "TSB", "brand:wikidata": "Q7671560", "brand:wikipedia": "en:TSB Bank (United Kingdom)", "name": "TSB", "source:name": "survey", "survey:date": "2018-11-22", "website": "https://branches.tsb.co.uk/wallington/wallington.html"}}, {"type": "node", "id": 1132744387, "lat": 51.3593905, "lon": -0.1495703, "tags": {"amenity": "bank", "brand": "NatWest", "brand:wikidata": "Q2740021", "brand:wikipedia": "en:NatWest", "name": "NatWest", "website": "https://www.natwest.com/search-results/locator/branch.html?sortcode=602220&name=Wallington"}}, {"type": "node", "id": 1137884595, "lat": 51.512637, "lon": -0.3047714, "tags": {"addr:city": "London", "addr:housenumber": "41", "addr:postcode": "W5 5BD", "addr:street": "High Street", "amenity": "bank", "brand": "Yorkshire Building Society", "brand:wikidata": "Q12073381", "brand:wikipedia": "en:Yorkshire Building Society", "check_date": "2024-08-20", "level": "0", "name": "Yorkshire Building Society", "website": "https://www.ybs.co.uk/contact-us/branch-finder/details?location=ealing&type=branch", "wheelchair": "yes"}}, {"type": "node", "id": 1142052857, "lat": 51.5191432, "lon": -0.0880307, "tags": {"amenity": "bank", "brand": "Halifax", "brand:wikidata": "Q3310164", "brand:wikipedia": "en:Halifax (bank)", "check_date": "2024-05-25", "name": "Halifax", "wheelchair": "yes"}}, {"type": "node", "id": 1154249043, "lat": 51.5376618, "lon": -0.1924477}, {"type": "node", "id": 1155428508, "lat": 51.5098968, "lon": -0.1230562}, {"type": "node", "id": 1155429127, "lat": 51.5099817, "lon": -0.1231499}, {"type": "node", "id": 1155466802, "lat": 51.4637158, "lon": -0.1683922, "tags": {"addr:city": "London", "addr:housename": "Unit 11", "addr:housenumber": "6", "addr:postcode": "SW11 1SA", "addr:street": "Saint John's Hill", "amenity": "bank", "atm": "yes", "brand": "Halifax", "brand:wikidata": "Q3310164", "brand:wikipedia": "en:Halifax (bank)", "check_date": "2025-07-04", "name": "Halifax"}}, {"type": "node", "id": 1165921354, "lat": 51.4632225, "lon": -0.1685642}, {"type": "node", "id": 1169215030, "lat": 51.54149, "lon": 0.0035236}, {"type": "node", "id": 1180388832, "lat": 51.5178708, "lon": -0.1117938}, {"type": "node", "id": 1193965024, "lat": 51.5462399, "lon": -0.1784543}, {"type": "node", "id": 1193965028, "lat": 51.5461379, "lon": -0.1783601}, {"type": "node", "id": 1193965036, "lat": 51.5461721, "lon": -0.1786384}, {"type": "node", "id": 1193965037, "lat": 51.5460705, "lon": -0.1785414}, {"type": "node", "id": 1208527935, "lat": 51.4895711, "lon": -0.1640207}, {"type": "node", "id": 1208528053, "lat": 51.4894948, "lon": -0.1639719}, {"type": "node", "id": 1208528054, "lat": 51.4895486, "lon": -0.1640085}, {"type": "node", "id": 1214782867, "lat": 51.5377632, "lon": -0.1925645}, {"type": "node", "id": 1214782875, "lat": 51.5375917, "lon": -0.1926032}, {"type": "node", "id": 1214782900, "lat": 51.5375525, "lon": -0.1926903}, {"type": "node", "id": 1214782910, "lat": 51.5376276, "lon": -0.1925236}, {"type": "node", "id": 1214782955, "lat": 51.5377666, "lon": -0.1925568}, {"type": "node", "id": 1214782971, "lat": 51.5376409, "lon": -0.1924942}, {"type": "node", "id": 1214783009, "lat": 51.5378442, "lon": -0.1926469}, {"type": "node", "id": 1214783011, "lat": 51.5377375, "lon": -0.1925358}, {"type": "node", "id": 1214783051, "lat": 51.5377703, "lon": -0.1925606}, {"type": "node", "id": 1230966512, "lat": 51.4975079, "lon": -0.1396791, "tags": {"addr:city": "London", "addr:housenumber": "24", "addr:postcode": "SW1E 5JD", "addr:street": "Palace Street", "amenity": "bank", "brand": "Barclays", "brand:wikidata": "Q245343", "name": "Barclays"}}, {"type": "node", "id": 1232368515, "lat": 51.5382275, "lon": -0.1418716}, {"type": "node", "id": 1232368546, "lat": 51.5371248, "lon": -0.1408534}, {"type": "node", "id": 1232368583, "lat": 51.5389613, "lon": -0.1422284}, {"type": "node", "id": 1232368621, "lat": 51.5389421, "lon": -0.1422641}, {"type": "node", "id": 1232368685, "lat": 51.5373937, "lon": -0.1415255}, {"type": "node", "id": 1232368694, "lat": 51.5382174, "lon": -0.1418268}, {"type": "node", "id": 1261385577, "lat": 51.516148, "lon": -0.1410933}, {"type": "node", "id": 1261385589, "lat": 51.5161364, "lon": -0.141169}, {"type": "node", "id": 1261385594, "lat": 51.5161646, "lon": -0.1410869}, {"type": "node", "id": 1261385603, "lat": 51.5162099, "lon": -0.1412019}, {"type": "node", "id": 1266124407, "lat": 51.5155503, "lon": -0.1543347, "tags": {"addr:housenumber": "1", "addr:street": "Portman Square", "amenity": "bank", "brand": "NatWest", "brand:wikidata": "Q2740021", "brand:wikipedia": "en:NatWest", "name": "NatWest", "website": "https://locator.natwest.com/Branch/601639-Portman%20Square.html", "wheelchair": "limited"}}, {"type": "node", "id": 1266124410, "lat": 51.515567, "lon": -0.1542227, "tags": {"addr:housenumber": "144", "addr:street": "Wigmore Street", "amenity": "bank", "name": "Habib Bank AG Zurich", "website": "https://www.habibbank.com/"}}, {"type": "node", "id": 1266124411, "lat": 51.51609, "lon": -0.1545776, "tags": {"addr:housenumber": "7", "addr:street": "Portman Square", "amenity": "bank", "name": "National Bank of Kuwait"}}, {"type": "node", "id": 1266124446, "lat": 51.516211, "lon": -0.1546338, "tags": {"amenity": "bank", "atm": "yes", "brand": "Barclays", "brand:wikidata": "Q245343", "brand:wikipedia": "en:Barclays", "name": "Barclays", "operator": "Barclays Bank PLC"}}, {"type": "node", "id": 1277561719, "lat": 51.6587286, "lon": -0.0466844}, {"type": "node", "id": 1277561991, "lat": 51.6586681, "lon": -0.0465741}, {"type": "node", "id": 1280251750, "lat": 51.498871, "lon": -0.1986455}, {"type": "node", "id": 1280251751, "lat": 51.4988845, "lon": -0.1986961}, {"type": "node", "id": 1280251755, "lat": 51.4988237, "lon": -0.1987699}, {"type": "node", "id": 1280251756, "lat": 51.4988017, "lon": -0.1987574}, {"type": "node", "id": 1280251757, "lat": 51.4988075, "lon": -0.1987318}, {"type": "node", "id": 1280251758, "lat": 51.4987547, "lon": -0.1987015}, {"type": "node", "id": 1280251759, "lat": 51.4987573, "lon": -0.1986894}, {"type": "node", "id": 1289457144, "lat": 51.501886, "lon": -0.1919863}, {"type": "node", "id": 1289457146, "lat": 51.5017539, "lon": -0.1919131}, {"type": "node", "id": 1289457148, "lat": 51.5016945, "lon": -0.1918573}, {"type": "node", "id": 1289457149, "lat": 51.5016275, "lon": -0.1920221}, {"type": "node", "id": 1289457150, "lat": 51.5017165, "lon": -0.1920893}, {"type": "node", "id": 1289457161, "lat": 51.5018733, "lon": -0.1921743}, {"type": "node", "id": 1289474118, "lat": 51.5015917, "lon": -0.1928741}, {"type": "node", "id": 1289493473, "lat": 51.4999869, "lon": -0.1956228}, {"type": "node", "id": 1289493483, "lat": 51.499957, "lon": -0.1957072}, {"type": "node", "id": 1289493508, "lat": 51.4998063, "lon": -0.1955697}, {"type": "node", "id": 1289493521, "lat": 51.4997907, "lon": -0.1955549}, {"type": "node", "id": 1289493523, "lat": 51.4998209, "lon": -0.1954707}, {"type": "node", "id": 1290667522, "lat": 51.5951302, "lon": -0.3838216, "tags": {"amenity": "bank", "atm": "yes", "brand": "NatWest", "brand:wikidata": "Q2740021", "name": "NatWest"}}, {"type": "node", "id": 1291617571, "lat": 51.5392825, "lon": -0.1943899}, {"type": "node", "id": 1291617575, "lat": 51.5391436, "lon": -0.1945457}, {"type": "node", "id": 1291617583, "lat": 51.5392243, "lon": -0.1943273}, {"type": "node", "id": 1291617586, "lat": 51.5391917, "lon": -0.1945997}, {"type": "node", "id": 1291617593, "lat": 51.5391436, "lon": -0.1945133}, {"type": "node", "id": 1312319849, "lat": 51.5143344, "lon": -0.0838897}, {"type": "node", "id": 1312678775, "lat": 51.5952466, "lon": -0.3840702, "tags": {"addr:housenumber": "44", "addr:postcode": "HA5 3JJ", "addr:street": "Bridge Street", "amenity": "bank", "atm": "yes", "brand": "TSB", "brand:wikidata": "Q7671560", "name": "TSB", "opening_hours": "Mo-Fr 09:30-16:30; We 10:00-16:30", "sortcode": "30-96-66"}}, {"type": "node", "id": 1312678942, "lat": 51.5951589, "lon": -0.3845543, "tags": {"amenity": "bank", "atm": "yes", "brand": "Nationwide", "brand:wikidata": "Q846735", "check_date": "2024-09-02", "check_date:opening_hours": "2024-09-02", "name": "Nationwide", "opening_hours": "Mo-Tu 09:00-16:30; We 10:00-16:30; Th-Fr 09:00-16:30; Sa 09:00-12:00; Su closed", "phone": "+44 345 266 0970", "website": "https://www.nationwide.co.uk/branches/pinner/63-bridge-street"}}, {"type": "node", "id": 1321939413, "lat": 51.5420138, "lon": 0.0004331, "tags": {"addr:city": "London", "addr:housenumber": "59-60", "addr:street": "The Mall", "amenity": "bank", "atm": "yes", "brand": "HSBC UK", "brand:wikidata": "Q64767453", "contact:website": "https://www.hsbc.co.uk/branch-list/stratford-counter-service-available-monday-friday/", "internet_access": "wlan", "name": "HSBC UK"}}, {"type": "node", "id": 1321939419, "lat": 51.5416185, "lon": -0.0013975, "tags": {"addr:city": "London", "addr:housenumber": "35-37", "addr:postcode": "E15 1XD", "addr:street": "The Mall", "amenity": "bank", "atm": "yes", "brand": "Halifax", "brand:wikidata": "Q3310164", "brand:wikipedia": "en:Halifax (bank)", "drive_through": "no", "name": "Halifax", "wheelchair": "yes"}}, {"type": "node", "id": 1322060900, "lat": 51.5407764, "lon": 0.0009001, "tags": {"addr:city": "London", "addr:housenumber": "38", "addr:postcode": "E15 4QN", "addr:street": "Broadway", "amenity": "bank", "atm": "yes", "brand": "Santander", "brand:wikidata": "Q7420065", "brand:wikipedia": "en:Santander UK", "check_date": "2023-04-17", "name": "Santander", "opening_hours": "Mo-Fr 09:00-17:00; Sa 09:00-16:00"}}, {"type": "node", "id": 1322111786, "lat": 51.540656, "lon": 0.0007627, "tags": {"addr:city": "London", "addr:housenumber": "34", "addr:street": "Broadway", "amenity": "bank", "brand": "London Community Credit Union", "brand:wikidata": "Q19903418", "check_date": "2023-04-17", "name": "London Community Credit Union", "old_name": "Carphone Warehouse", "opening_hours": "Mo-We,Fr 09:30-17:00; Th,Sa 09:30-13:30"}}, {"type": "node", "id": 1334476239, "lat": 51.4994396, "lon": -0.129928}, {"type": "node", "id": 1334476387, "lat": 51.4995917, "lon": -0.1299718}, {"type": "node", "id": 1334476391, "lat": 51.4995612, "lon": -0.1302183}, {"type": "node", "id": 1334476487, "lat": 51.4993853, "lon": -0.1300863}, {"type": "node", "id": 1334476560, "lat": 51.4994218, "lon": -0.1301686}, {"type": "node", "id": 1334476737, "lat": 51.4996167, "lon": -0.1301731}, {"type": "node", "id": 1352350555, "lat": 51.4895353, "lon": -0.1638312}, {"type": "node", "id": 1352350559, "lat": 51.4895929, "lon": -0.1639733}, {"type": "node", "id": 1352350566, "lat": 51.4895512, "lon": -0.1638299}, {"type": "node", "id": 1352350571, "lat": 51.4895143, "lon": -0.1638551}, {"type": "node", "id": 1352350577, "lat": 51.4895424, "lon": -0.1638299}, {"type": "node", "id": 1352350607, "lat": 51.4895048, "lon": -0.1638904}, {"type": "node", "id": 1352350621, "lat": 51.4895232, "lon": -0.1638413}, {"type": "node", "id": 1352350643, "lat": 51.4895094, "lon": -0.1638729}, {"type": "node", "id": 1352350659, "lat": 51.489565, "lon": -0.1639459}, {"type": "node", "id": 1352350662, "lat": 51.489511, "lon": -0.163928}, {"type": "node", "id": 1352350666, "lat": 51.489506, "lon": -0.1639092}, {"type": "node", "id": 1352350676, "lat": 51.4895432, "lon": -0.1640043}, {"type": "node", "id": 1368399340, "lat": 51.5404081, "lon": 0.1479442}, {"type": "node", "id": 1368399343, "lat": 51.5403094, "lon": 0.1479585, "tags": {"amenity": "atm", "brand": "Barclays", "brand:wikidata": "Q245343", "check_date": "2022-07-09", "operator": "Barclays", "operator:wikidata": "Q245343"}}, {"type": "node", "id": 1368399345, "lat": 51.5403378, "lon": 0.1479533, "tags": {"amenity": "atm", "brand": "Barclays", "brand:wikidata": "Q245343", "check_date": "2022-07-09", "operator": "Barclays", "operator:wikidata": "Q245343"}}, {"type": "node", "id": 1368399363, "lat": 51.5403863, "lon": 0.1475519}, {"type": "node", "id": 1368399364, "lat": 51.540269, "lon": 0.1479659}, {"type": "node", "id": 1368399367, "lat": 51.5402425, "lon": 0.1475921}, {"type": "node", "id": 1369477655, "lat": 51.5424706, "lon": 0.1476795}, {"type": "node", "id": 1369477657, "lat": 51.5425092, "lon": 0.147684}, {"type": "node", "id": 1369477658, "lat": 51.542486, "lon": 0.1476812, "tags": {"amenity": "atm", "brand": "Nationwide", "brand:wikidata": "Q846735", "operator": "Nationwide", "operator:wikidata": "Q846735"}}, {"type": "node", "id": 1369477669, "lat": 51.5425173, "lon": 0.1475288}, {"type": "node", "id": 1369477679, "lat": 51.542477, "lon": 0.1475221}, {"type": "node", "id": 1369500101, "lat": 51.5406439, "lon": 0.1484191}, {"type": "node", "id": 1369500102, "lat": 51.540601, "lon": 0.1482565}, {"type": "node", "id": 1369500104, "lat": 51.5406361, "lon": 0.1482523}, {"type": "node", "id": 1369500105, "lat": 51.5408767, "lon": 0.148217}, {"type": "node", "id": 1369500106, "lat": 51.5405803, "lon": 0.148259}, {"type": "node", "id": 1369500112, "lat": 51.5405881, "lon": 0.1484259}, {"type": "node", "id": 1369500114, "lat": 51.5407424, "lon": 0.1482402}, {"type": "node", "id": 1369500116, "lat": 51.5407831, "lon": 0.1482307, "tags": {"amenity": "atm", "check_date": "2022-07-09", "operator": "HBOS"}}, {"type": "node", "id": 1369500118, "lat": 51.540759, "lon": 0.1484904}, {"type": "node", "id": 1369500125, "lat": 51.5408929, "lon": 0.1484682}, {"type": "node", "id": 1369500130, "lat": 51.5407508, "lon": 0.1484052}, {"type": "node", "id": 1371263904, "lat": 51.5002661, "lon": -0.1956522, "tags": {"addr:housenumber": "160", "addr:street": "Kensington High Street", "amenity": "bank", "brand": "Metro Bank", "brand:wikidata": "Q6824499", "brand:wikipedia": "en:Metro Bank (United Kingdom)", "name": "Metro Bank"}}, {"type": "node", "id": 1373786676, "lat": 51.5402849, "lon": -0.1964346}, {"type": "node", "id": 1373786737, "lat": 51.5402727, "lon": -0.1964216}, {"type": "node", "id": 1418108822, "lat": 51.5018792, "lon": -0.1897731}, {"type": "node", "id": 1418108827, "lat": 51.5019748, "lon": -0.189683}, {"type": "node", "id": 1418108832, "lat": 51.5020906, "lon": -0.1897402}, {"type": "node", "id": 1418108914, "lat": 51.5018348, "lon": -0.1898126}, {"type": "node", "id": 1418109026, "lat": 51.501822, "lon": -0.1898754}, {"type": "node", "id": 1418109116, "lat": 51.5018656, "lon": -0.1898304}, {"type": "node", "id": 1418109234, "lat": 51.5020505, "lon": -0.1899822}, {"type": "node", "id": 1419164429, "lat": 51.5131817, "lon": -0.306114, "tags": {"addr:housenumber": "14", "addr:street": "New Broadway", "amenity": "bank", "atm": "yes", "brand": "The Co-operative Bank", "brand:wikidata": "Q3520318", "brand:wikipedia": "en:The Co-operative Bank", "check_date": "2025-02-28", "name": "The Co-operative Bank"}}, {"type": "node", "id": 1420915840, "lat": 51.5138284, "lon": -0.3005353}, {"type": "node", "id": 1420915872, "lat": 51.5138356, "lon": -0.3004655}, {"type": "node", "id": 1420915881, "lat": 51.5139914, "lon": -0.3005661}, {"type": "node", "id": 1420915885, "lat": 51.5139934, "lon": -0.300495}, {"type": "node", "id": 1425277729, "lat": 51.5019195, "lon": -0.1897929}, {"type": "node", "id": 1425277785, "lat": 51.5019329, "lon": -0.1897262}, {"type": "node", "id": 1425277863, "lat": 51.501961, "lon": -0.1897414}, {"type": "node", "id": 1427518629, "lat": 51.5392256, "lon": -0.1425753, "tags": {"amenity": "atm", "fee": "no", "wheelchair": "yes"}}, {"type": "node", "id": 1445641663, "lat": 51.54562, "lon": -0.054855, "tags": {"amenity": "bank", "brand": "Barclays", "brand:wikidata": "Q245343", "brand:wikipedia": "en:Barclays", "name": "Barclays", "operator": "Barclays Bank PLC"}}, {"type": "node", "id": 1447940764, "lat": 51.5434221, "lon": -0.0057466}, {"type": "node", "id": 1448883250, "lat": 51.5194878, "lon": -0.1329755}, {"type": "node", "id": 1448986089, "lat": 51.5432558, "lon": -0.0054506}, {"type": "node", "id": 1448986099, "lat": 51.5434733, "lon": -0.0058533}, {"type": "node", "id": 1449441698, "lat": 51.5432771, "lon": -0.0054151}, {"type": "node", "id": 1449441700, "lat": 51.5433503, "lon": -0.0055356}, {"type": "node", "id": 1490010808, "lat": 51.5791748, "lon": -0.3343526}, {"type": "node", "id": 1490010810, "lat": 51.5791851, "lon": -0.3340732}, {"type": "node", "id": 1490010811, "lat": 51.5792322, "lon": -0.334358}, {"type": "node", "id": 1490039255, "lat": 51.5807491, "lon": -0.3341532, "tags": {"amenity": "bank", "atm": "yes", "brand": "Nationwide", "brand:wikidata": "Q846735", "brand:wikipedia": "en:Nationwide Building Society", "check_date": "2025-11-01", "check_date:opening_hours": "2024-09-02", "name": "Nationwide", "opening_hours": "Mo-Tu 09:00-16:30; We 10:00-16:30; Th-Fr 09:00-16:30; Sa 09:00-12:00; Su closed", "phone": "+44 345 266 0224", "website": "https://www.nationwide.co.uk/branches/harrow/325-station-road", "wheelchair": "yes"}}, {"type": "node", "id": 1494854475, "lat": 51.5818228, "lon": -0.3326938, "tags": {"addr:country": "GB", "addr:housenumber": "286;288", "addr:postcode": "HA1 2EB", "addr:street": "Station Road", "amenity": "bank", "atm": "yes", "brand": "Lloyds Bank", "brand:wikidata": "Q1152847", "brand:wikipedia": "en:Lloyds Bank", "check_date": "2025-12-20", "contact:website": "https://branches.lloydsbank.com/harrow/286-288-station-road", "name": "Lloyds Bank", "opening_hours": "Mo-Fr 09:00-17:00; Sa 09:00-13:00", "source:name": "survey"}}, {"type": "node", "id": 1504833292, "lat": 51.5156193, "lon": -0.139971, "tags": {"amenity": "atm", "brand": "HSBC UK", "brand:wikidata": "Q64767453", "cash_in": "yes", "check_date": "2023-11-11", "currency:GBP": "yes", "drive_through": "no", "level": "0", "operator": "HSBC UK", "operator:wikidata": "Q64767453"}}, {"type": "node", "id": 1556097055, "lat": 51.5100231, "lon": -0.0819265}, {"type": "node", "id": 1556097119, "lat": 51.5100202, "lon": -0.0824375}, {"type": "node", "id": 1556097132, "lat": 51.5098515, "lon": -0.0820778}, {"type": "node", "id": 1556097144, "lat": 51.5100961, "lon": -0.0824006}, {"type": "node", "id": 1556097152, "lat": 51.509993, "lon": -0.0823276}, {"type": "node", "id": 1556097284, "lat": 51.5098418, "lon": -0.0821459}, {"type": "node", "id": 1556097287, "lat": 51.5099004, "lon": -0.0824832}, {"type": "node", "id": 1556097296, "lat": 51.5100573, "lon": -0.0822668}, {"type": "node", "id": 1556097301, "lat": 51.5101983, "lon": -0.0823379}, {"type": "node", "id": 1556260038, "lat": 51.5106348, "lon": -0.085088}, {"type": "node", "id": 1556260054, "lat": 51.5106359, "lon": -0.085231}, {"type": "node", "id": 1558137016, "lat": 51.5419446, "lon": -0.0555599}, {"type": "node", "id": 1558137028, "lat": 51.5484676, "lon": -0.0550181}, {"type": "node", "id": 1564468486, "lat": 51.5109644, "lon": -0.0853644}, {"type": "node", "id": 1564468487, "lat": 51.5109494, "lon": -0.0850345}, {"type": "node", "id": 1564468495, "lat": 51.510901, "lon": -0.0850117}, {"type": "node", "id": 1564468525, "lat": 51.5109403, "lon": -0.084902}, {"type": "node", "id": 1564468534, "lat": 51.5109938, "lon": -0.0855551}, {"type": "node", "id": 1564468538, "lat": 51.5110061, "lon": -0.0851578}, {"type": "node", "id": 1564468539, "lat": 51.5109406, "lon": -0.0849527}, {"type": "node", "id": 1564468558, "lat": 51.5108018, "lon": -0.0851166}, {"type": "node", "id": 1564468566, "lat": 51.510911, "lon": -0.0850881}, {"type": "node", "id": 1564468571, "lat": 51.5109527, "lon": -0.0851766}, {"type": "node", "id": 1564468582, "lat": 51.5108042, "lon": -0.0850267}, {"type": "node", "id": 1564468584, "lat": 51.5108584, "lon": -0.0851055}, {"type": "node", "id": 1564468603, "lat": 51.5109878, "lon": -0.0850237}, {"type": "node", "id": 1564468605, "lat": 51.5108726, "lon": -0.0852025}, {"type": "node", "id": 1568934904, "lat": 51.5392073, "lon": -0.142629}, {"type": "node", "id": 1568934906, "lat": 51.5392104, "lon": -0.1426682}, {"type": "node", "id": 1568934907, "lat": 51.5392159, "lon": -0.1425915}, {"type": "node", "id": 1569343350, "lat": 51.5110696, "lon": -0.0887108}, {"type": "node", "id": 1569343390, "lat": 51.5110091, "lon": -0.0884393}, {"type": "node", "id": 1569343740, "lat": 51.5112085, "lon": -0.0886271}, {"type": "node", "id": 1569343941, "lat": 51.5112202, "lon": -0.0885949}, {"type": "node", "id": 1571298034, "lat": 51.5151256, "lon": -0.0850281}, {"type": "node", "id": 1571298055, "lat": 51.5155198, "lon": -0.0850445}, {"type": "node", "id": 1571298061, "lat": 51.5152892, "lon": -0.0846048}, {"type": "node", "id": 1571298079, "lat": 51.5157003, "lon": -0.0847786}, {"type": "node", "id": 1571298084, "lat": 51.5156666, "lon": -0.0848}, {"type": "node", "id": 1571298091, "lat": 51.5151217, "lon": -0.085065}, {"type": "node", "id": 1571298098, "lat": 51.5155019, "lon": -0.0849495}, {"type": "node", "id": 1571298110, "lat": 51.5154599, "lon": -0.0850197}, {"type": "node", "id": 1571298122, "lat": 51.5156793, "lon": -0.084865}, {"type": "node", "id": 1571298131, "lat": 51.5154692, "lon": -0.0850711}, {"type": "node", "id": 1571298154, "lat": 51.5154387, "lon": -0.0849965}, {"type": "node", "id": 1571298157, "lat": 51.5150481, "lon": -0.085002}, {"type": "node", "id": 1571298159, "lat": 51.5154152, "lon": -0.0850966}, {"type": "node", "id": 1571298190, "lat": 51.5154026, "lon": -0.085079}, {"type": "node", "id": 1571298216, "lat": 51.5152805, "lon": -0.0851715}, {"type": "node", "id": 1571298218, "lat": 51.515229, "lon": -0.0846813}, {"type": "node", "id": 1571298221, "lat": 51.5153503, "lon": -0.0851336}, {"type": "node", "id": 1571298236, "lat": 51.5152369, "lon": -0.0850745}, {"type": "node", "id": 1571298246, "lat": 51.5152338, "lon": -0.0851122}, {"type": "node", "id": 1571298253, "lat": 51.5152715, "lon": -0.0851174}, {"type": "node", "id": 1580258012, "lat": 51.375081, "lon": 0.0994943}, {"type": "node", "id": 1580258225, "lat": 51.3752238, "lon": 0.0991581}, {"type": "node", "id": 1580258236, "lat": 51.3751387, "lon": 0.0992913}, {"type": "node", "id": 1580258392, "lat": 51.3753402, "lon": 0.0996747}, {"type": "node", "id": 1580258452, "lat": 51.3753728, "lon": 0.0995571}, {"type": "node", "id": 1580258544, "lat": 51.3754693, "lon": 0.0997665}, {"type": "node", "id": 1580258625, "lat": 51.3755859, "lon": 0.0993455}, {"type": "node", "id": 1580261591, "lat": 51.3771836, "lon": 0.0998072}, {"type": "node", "id": 1580261656, "lat": 51.3772321, "lon": 0.0998453}, {"type": "node", "id": 1598383502, "lat": 51.4801816, "lon": -0.1945776, "tags": {"amenity": "bank", "brand": "Metro Bank", "brand:wikidata": "Q6824499", "brand:wikipedia": "en:Metro Bank (United Kingdom)", "name": "Metro Bank", "source": "survey"}}, {"type": "node", "id": 1605743657, "lat": 51.4985524, "lon": -0.1569645, "tags": {"amenity": "bank", "atm": "yes", "brand": "Barclays", "brand:wikidata": "Q245343", "brand:wikipedia": "en:Barclays", "name": "Barclays", "operator": "Barclays Bank PLC", "source": "survey"}}, {"type": "node", "id": 1611442386, "lat": 51.520077, "lon": -0.1564497}, {"type": "node", "id": 1611442402, "lat": 51.5201116, "lon": -0.1562493}, {"type": "node", "id": 1611442416, "lat": 51.5201702, "lon": -0.1562754}, {"type": "node", "id": 1611442418, "lat": 51.5201856, "lon": -0.1561861}, {"type": "node", "id": 1611442422, "lat": 51.5202039, "lon": -0.1561942}, {"type": "node", "id": 1611442427, "lat": 51.5202325, "lon": -0.1563073}, {"type": "node", "id": 1611442429, "lat": 51.5202485, "lon": -0.1562141}, {"type": "node", "id": 1611442431, "lat": 51.5202559, "lon": -0.1565294}, {"type": "node", "id": 1611442433, "lat": 51.5202899, "lon": -0.1563329}, {"type": "node", "id": 1616712875, "lat": 51.5217094, "lon": -0.1358268}, {"type": "node", "id": 1619138182, "lat": 51.4640685, "lon": -0.1657493, "tags": {"amenity": "bank", "atm": "yes", "brand": "HSBC UK", "brand:wikidata": "Q64767453", "check_date": "2025-07-04", "contact:website": "https://www.hsbc.co.uk/branch-list/clapham-junction/", "name": "HSBC UK", "wheelchair": "yes"}}, {"type": "node", "id": 1634404186, "lat": 51.6546272, "lon": -0.2014812, "tags": {"amenity": "bank", "brand": "NatWest", "brand:wikidata": "Q2740021", "brand:wikipedia": "en:NatWest", "name": "NatWest", "opening_hours": "Mo,Tu,Th,Fr 09:30-16:30; We 10:00-16:30", "website": "https://www.natwest.com/search-results/locator/branch.html?sortcode=516134&name=Barnet"}}, {"type": "node", "id": 1634404191, "lat": 51.655104, "lon": -0.201566, "tags": {"amenity": "bank", "brand": "Santander", "brand:wikidata": "Q7420065", "brand:wikipedia": "en:Santander UK", "name": "Santander", "opening_hours": "Mo-Fr 09:30-15:00; Sa 09:30-12:30"}}, {"type": "node", "id": 1634683186, "lat": 51.4822512, "lon": -0.2005046}, {"type": "node", "id": 1634683187, "lat": 51.4822615, "lon": -0.2005364}, {"type": "node", "id": 1634683189, "lat": 51.4822641, "lon": -0.200459}, {"type": "node", "id": 1634683191, "lat": 51.4822678, "lon": -0.2005173}, {"type": "node", "id": 1634683195, "lat": 51.4822923, "lon": -0.2005615}, {"type": "node", "id": 1634683197, "lat": 51.4823371, "lon": -0.200202}, {"type": "node", "id": 1634683205, "lat": 51.4823901, "lon": -0.200243}, {"type": "node", "id": 1639959539, "lat": 51.4801278, "lon": -0.1976876}, {"type": "node", "id": 1639959556, "lat": 51.4801604, "lon": -0.197703}, {"type": "node", "id": 1639959562, "lat": 51.4801818, "lon": -0.1975694}, {"type": "node", "id": 1639959583, "lat": 51.4802901, "lon": -0.1975932}, {"type": "node", "id": 1639959592, "lat": 51.4803506, "lon": -0.1977955}, {"type": "node", "id": 1639959596, "lat": 51.4803984, "lon": -0.1976625}, {"type": "node", "id": 1639959597, "lat": 51.4804084, "lon": -0.1975393}, {"type": "node", "id": 1639959598, "lat": 51.4804084, "lon": -0.1976086}, {"type": "node", "id": 1668567545, "lat": 51.5020377, "lon": -0.1612405}, {"type": "node", "id": 1668567573, "lat": 51.5020625, "lon": -0.1609098}, {"type": "node", "id": 1669495393, "lat": 51.5162237, "lon": -0.0838066}, {"type": "node", "id": 1669495397, "lat": 51.5162567, "lon": -0.0838047}, {"type": "node", "id": 1669495401, "lat": 51.5162692, "lon": -0.0838211}, {"type": "node", "id": 1669495404, "lat": 51.516276, "lon": -0.0838445}, {"type": "node", "id": 1678170577, "lat": 51.5116545, "lon": -0.0915356}, {"type": "node", "id": 1678170581, "lat": 51.511694, "lon": -0.0917469}, {"type": "node", "id": 1678170608, "lat": 51.5117795, "lon": -0.0916953}, {"type": "node", "id": 1678170611, "lat": 51.5118006, "lon": -0.0914475}, {"type": "node", "id": 1678170626, "lat": 51.511853, "lon": -0.091651}, {"type": "node", "id": 1678226775, "lat": 51.5105184, "lon": -0.0855894}, {"type": "node", "id": 1678226781, "lat": 51.5105339, "lon": -0.0854766}, {"type": "node", "id": 1678226783, "lat": 51.5105488, "lon": -0.0857576}, {"type": "node", "id": 1678226785, "lat": 51.5105427, "lon": -0.085539}, {"type": "node", "id": 1678226789, "lat": 51.5105483, "lon": -0.085579}, {"type": "node", "id": 1678226815, "lat": 51.5106379, "lon": -0.0854248}, {"type": "node", "id": 1678226820, "lat": 51.5106493, "lon": -0.0854975}, {"type": "node", "id": 1678226821, "lat": 51.5106621, "lon": -0.0856769}, {"type": "node", "id": 1678226822, "lat": 51.5106633, "lon": -0.0855862}, {"type": "node", "id": 1678226824, "lat": 51.5106696, "lon": -0.0856627}, {"type": "node", "id": 1678226825, "lat": 51.5106732, "lon": -0.0856492}, {"type": "node", "id": 1678227050, "lat": 51.5110469, "lon": -0.0848703}, {"type": "node", "id": 1678227078, "lat": 51.5111307, "lon": -0.0854888}, {"type": "node", "id": 1678227092, "lat": 51.5111746, "lon": -0.0883627}, {"type": "node", "id": 1681567927, "lat": 51.4969568, "lon": -0.1452243, "tags": {"addr:city": "London", "addr:housename": "Opal Transfer Ltd.", "addr:housenumber": "43", "addr:postcode": "SW1W 0BP", "addr:street": "Grosvenor Gardens", "amenity": "bank", "atm": "no", "int_name": "Opal Transfer Ltd.", "name": "Opal Transfer Ltd."}}, {"type": "node", "id": 1684511803, "lat": 51.5135655, "lon": -0.0919972}, {"type": "node", "id": 1684511806, "lat": 51.5135905, "lon": -0.0922296}, {"type": "node", "id": 1684511810, "lat": 51.5136999, "lon": -0.0919358}, {"type": "node", "id": 1684511861, "lat": 51.5140158, "lon": -0.0920426}, {"type": "node", "id": 1684511885, "lat": 51.5142038, "lon": -0.0919468}, {"type": "node", "id": 1684511887, "lat": 51.5142441, "lon": -0.0921766}, {"type": "node", "id": 1684511888, "lat": 51.5142751, "lon": -0.0919071}, {"type": "node", "id": 1684511891, "lat": 51.5143571, "lon": -0.0918642}, {"type": "node", "id": 1684511896, "lat": 51.5144053, "lon": -0.092148}, {"type": "node", "id": 1684511912, "lat": 51.5146354, "lon": -0.0919121}, {"type": "node", "id": 1684511914, "lat": 51.5147085, "lon": -0.0920999}, {"type": "node", "id": 1684511915, "lat": 51.5147168, "lon": -0.091825}, {"type": "node", "id": 1684511916, "lat": 51.5147213, "lon": -0.0918403}, {"type": "node", "id": 1684511919, "lat": 51.5147828, "lon": -0.0917751}, {"type": "node", "id": 1684511920, "lat": 51.514798, "lon": -0.0918138}, {"type": "node", "id": 1684511922, "lat": 51.5148107, "lon": -0.0918016}, {"type": "node", "id": 1684511923, "lat": 51.5148177, "lon": -0.0918424}, {"type": "node", "id": 1684511927, "lat": 51.514845, "lon": -0.0918311}, {"type": "node", "id": 1684511942, "lat": 51.5148586, "lon": -0.0919203}, {"type": "node", "id": 1684511944, "lat": 51.5148818, "lon": -0.0920718}, {"type": "node", "id": 1686333062, "lat": 51.5138542, "lon": -0.0940528}, {"type": "node", "id": 1689388021, "lat": 51.5105376, "lon": -0.0852593}, {"type": "node", "id": 1689388024, "lat": 51.5105416, "lon": -0.085092}, {"type": "node", "id": 1689388045, "lat": 51.5109404, "lon": -0.084923}, {"type": "node", "id": 1700009680, "lat": 51.5174996, "lon": -0.1218131}, {"type": "node", "id": 1700009693, "lat": 51.5175491, "lon": -0.1215248}, {"type": "node", "id": 1700009700, "lat": 51.5175881, "lon": -0.1218875}, {"type": "node", "id": 1700009722, "lat": 51.5176249, "lon": -0.1217795}, {"type": "node", "id": 1700009740, "lat": 51.5177503, "lon": -0.1209196}, {"type": "node", "id": 1700009745, "lat": 51.5177847, "lon": -0.1206822}, {"type": "node", "id": 1700227420, "lat": 51.5143874, "lon": -0.1278793}, {"type": "node", "id": 1700227422, "lat": 51.5143893, "lon": -0.1278566}, {"type": "node", "id": 1700227424, "lat": 51.5143893, "lon": -0.1279051}, {"type": "node", "id": 1700227425, "lat": 51.5143986, "lon": -0.1279238}, {"type": "node", "id": 1700227427, "lat": 51.5144, "lon": -0.1278332}, {"type": "node", "id": 1700227428, "lat": 51.5144146, "lon": -0.1278199}, {"type": "node", "id": 1700227430, "lat": 51.5144287, "lon": -0.1278199}, {"type": "node", "id": 1700227431, "lat": 51.5144522, "lon": -0.1277931}, {"type": "node", "id": 1700227433, "lat": 51.5144698, "lon": -0.1280205}, {"type": "node", "id": 1700227437, "lat": 51.5145164, "lon": -0.1279394}, {"type": "node", "id": 1708718109, "lat": 51.5040371, "lon": -0.0160733, "tags": {"amenity": "bank", "atm": "yes", "brand": "NatWest", "brand:wikidata": "Q2740021", "name": "NatWest"}}, {"type": "node", "id": 1708940309, "lat": 51.4509074, "lon": 0.0527555, "tags": {"addr:city": "London", "addr:housenumber": "65", "addr:postcode": "SE9 1YS", "addr:street": "Eltham High Street", "addr:suburb": "Eltham", "amenity": "bank", "atm": "yes", "brand": "NatWest", "brand:wikidata": "Q2740021", "check_date": "2023-06-14", "name": "NatWest", "opening_hours": "Mo-Tu 09:30-16:30; We 10:00-16:30; Th-Fr 09:30-16:30", "operator": "Natwest", "website": "https://www.natwest.com/search-results/locator/branch.html?sortcode=600737&name=Eltham", "wheelchair": "yes"}}, {"type": "node", "id": 1715820694, "lat": 51.5856393, "lon": -0.0202747}, {"type": "node", "id": 1715820696, "lat": 51.5856738, "lon": -0.0197704}, {"type": "node", "id": 1715820697, "lat": 51.5857874, "lon": -0.0203009}, {"type": "node", "id": 1715820698, "lat": 51.5858219, "lon": -0.0197966}, {"type": "node", "id": 1717643541, "lat": 51.5145539, "lon": -0.090534, "tags": {"amenity": "bank", "brand": "BOC", "brand:wikidata": "Q790068", "brand:wikipedia": "en:Bank of China", "name": "BOC", "official_name": "Bank of China", "operator": "Bank of China"}}, {"type": "node", "id": 1718233976, "lat": 51.5140591, "lon": -0.0922089, "tags": {"entrance": "yes", "source": "survey"}}, {"type": "node", "id": 1719421977, "lat": 51.5148938, "lon": -0.089801}, {"type": "node", "id": 1719421986, "lat": 51.5148956, "lon": -0.0897691}, {"type": "node", "id": 1719421987, "lat": 51.5149029, "lon": -0.0897402, "tags": {"entrance": "yes"}}, {"type": "node", "id": 1719421988, "lat": 51.5149143, "lon": -0.089719}, {"type": "node", "id": 1719421989, "lat": 51.5149293, "lon": -0.0897042}, {"type": "node", "id": 1719421990, "lat": 51.5149461, "lon": -0.0896978}, {"type": "node", "id": 1719421993, "lat": 51.5149496, "lon": -0.0901636}, {"type": "node", "id": 1719421995, "lat": 51.51496, "lon": -0.0901883}, {"type": "node", "id": 1719421997, "lat": 51.5149745, "lon": -0.0902019}, {"type": "node", "id": 1719422000, "lat": 51.5149946, "lon": -0.0902078}, {"type": "node", "id": 1719422002, "lat": 51.5150213, "lon": -0.090201}, {"type": "node", "id": 1719422009, "lat": 51.5150226, "lon": -0.0896707, "tags": {"entrance": "yes"}}, {"type": "node", "id": 1719422010, "lat": 51.515121, "lon": -0.0896359}, {"type": "node", "id": 1719422011, "lat": 51.5151252, "lon": -0.089833}, {"type": "node", "id": 1719422013, "lat": 51.5151275, "lon": -0.0898465}, {"type": "node", "id": 1719422015, "lat": 51.5151322, "lon": -0.0897075}, {"type": "node", "id": 1719422019, "lat": 51.5151474, "lon": -0.0901434, "tags": {"entrance": "yes"}}, {"type": "node", "id": 1719422021, "lat": 51.5151494, "lon": -0.0898223}, {"type": "node", "id": 1719422031, "lat": 51.5151774, "lon": -0.0901297}, {"type": "node", "id": 1719899671, "lat": 51.5138312, "lon": -0.0939101}, {"type": "node", "id": 1719899673, "lat": 51.51397, "lon": -0.0938496}, {"type": "node", "id": 1721678911, "lat": 51.5135924, "lon": -0.0924295}, {"type": "node", "id": 1721678913, "lat": 51.5136246, "lon": -0.0926012}, {"type": "node", "id": 1721678918, "lat": 51.5136542, "lon": -0.0925886}, {"type": "node", "id": 1721678922, "lat": 51.5136598, "lon": -0.092619}, {"type": "node", "id": 1721678932, "lat": 51.513686, "lon": -0.0928664}, {"type": "node", "id": 1721678936, "lat": 51.5136964, "lon": -0.0929358}, {"type": "node", "id": 1721678939, "lat": 51.5137072, "lon": -0.0929306}, {"type": "node", "id": 1721678940, "lat": 51.5137219, "lon": -0.0930201}, {"type": "node", "id": 1721678942, "lat": 51.5137306, "lon": -0.0930161}, {"type": "node", "id": 1721678946, "lat": 51.51375, "lon": -0.0924023}, {"type": "node", "id": 1721678948, "lat": 51.5137606, "lon": -0.0924125}, {"type": "node", "id": 1721678950, "lat": 51.5137765, "lon": -0.092531}, {"type": "node", "id": 1721678963, "lat": 51.513781, "lon": -0.0925648}, {"type": "node", "id": 1721678990, "lat": 51.5138162, "lon": -0.0928121}, {"type": "node", "id": 1721713691, "lat": 51.5148148, "lon": -0.0892428}, {"type": "node", "id": 1721713693, "lat": 51.514841, "lon": -0.0894139}, {"type": "node", "id": 1721713695, "lat": 51.5148584, "lon": -0.089461}, {"type": "node", "id": 1721713697, "lat": 51.5148711, "lon": -0.0894777}, {"type": "node", "id": 1721713703, "lat": 51.5148939, "lon": -0.0894914}, {"type": "node", "id": 1721713705, "lat": 51.5149178, "lon": -0.0894939}, {"type": "node", "id": 1721713707, "lat": 51.5149367, "lon": -0.0891976}, {"type": "node", "id": 1721713708, "lat": 51.5149583, "lon": -0.0893197}, {"type": "node", "id": 1721713709, "lat": 51.5149749, "lon": -0.0893122}, {"type": "node", "id": 1721713710, "lat": 51.514983, "lon": -0.0893717}, {"type": "node", "id": 1721713716, "lat": 51.5149876, "lon": -0.08897}, {"type": "node", "id": 1721713718, "lat": 51.5149434, "lon": -0.0891818}, {"type": "node", "id": 1721713721, "lat": 51.5149463, "lon": -0.0891945}, {"type": "node", "id": 1721713725, "lat": 51.5150135, "lon": -0.0893581}, {"type": "node", "id": 1721713726, "lat": 51.5150189, "lon": -0.0891557}, {"type": "node", "id": 1721713727, "lat": 51.5150308, "lon": -0.0894554}, {"type": "node", "id": 1721713728, "lat": 51.5150806, "lon": -0.0889303}, {"type": "node", "id": 1721713730, "lat": 51.5151285, "lon": -0.0892248}, {"type": "node", "id": 1721713731, "lat": 51.5150674, "lon": -0.0892452}, {"type": "node", "id": 1721713734, "lat": 51.5150977, "lon": -0.0894315}, {"type": "node", "id": 1722104894, "lat": 51.516474, "lon": -0.0886924}, {"type": "node", "id": 1722104895, "lat": 51.5164962, "lon": -0.0882511}, {"type": "node", "id": 1722104896, "lat": 51.5164814, "lon": -0.0886949}, {"type": "node", "id": 1722104897, "lat": 51.5164851, "lon": -0.0888294}, {"type": "node", "id": 1722104898, "lat": 51.5164943, "lon": -0.0888308}, {"type": "node", "id": 1722104899, "lat": 51.516508, "lon": -0.0886267}, {"type": "node", "id": 1722104900, "lat": 51.5165146, "lon": -0.0884685}, {"type": "node", "id": 1722104901, "lat": 51.5165137, "lon": -0.0886794}, {"type": "node", "id": 1722104902, "lat": 51.5165064, "lon": -0.0888223}, {"type": "node", "id": 1722104903, "lat": 51.5165146, "lon": -0.0888883}, {"type": "node", "id": 1722104904, "lat": 51.5165214, "lon": -0.0888912}, {"type": "node", "id": 1722104905, "lat": 51.5165247, "lon": -0.0888981}, {"type": "node", "id": 1722104907, "lat": 51.516517, "lon": -0.0884646}, {"type": "node", "id": 1722104908, "lat": 51.5165411, "lon": -0.0886208}, {"type": "node", "id": 1722104909, "lat": 51.516627, "lon": -0.0883486}, {"type": "node", "id": 1722104910, "lat": 51.5166134, "lon": -0.0888638, "tags": {"amenity": "clock", "display": "analog", "source": "photograph", "support": "wall_mounted"}}, {"type": "node", "id": 1722104912, "lat": 51.5166508, "lon": -0.0885938}, {"type": "node", "id": 1722104914, "lat": 51.5166698, "lon": -0.088585}, {"type": "node", "id": 1722104915, "lat": 51.5167034, "lon": -0.0888296}, {"type": "node", "id": 1722118834, "lat": 51.5165161, "lon": -0.0884754}, {"type": "node", "id": 1722133494, "lat": 51.5857899, "lon": -0.0197909, "tags": {"amenity": "atm", "brand": "HSBC UK", "brand:wikidata": "Q64767453", "operator": "HSBC UK", "operator:wikidata": "Q64767453"}}, {"type": "node", "id": 1723647450, "lat": 51.584013, "lon": -0.0234264, "tags": {"addr:city": "London", "addr:country": "GB", "addr:housenumber": "176-178", "addr:postcode": "E17 7JS", "addr:street": "High Street", "addr:suburb": "Walthamstow", "amenity": "bank", "brand": "Halifax", "brand:wikidata": "Q3310164", "brand:wikipedia": "en:Halifax (bank)", "name": "Halifax", "operator": "Halifax"}}, {"type": "node", "id": 1723647452, "lat": 51.5840407, "lon": -0.0232565, "tags": {"addr:city": "London", "addr:country": "GB", "addr:housenumber": "182", "addr:postcode": "E17 7JH", "addr:street": "High Street", "addr:suburb": "Walthamstow", "amenity": "bank", "atm": "yes", "brand": "Lloyds Bank", "brand:wikidata": "Q1152847", "brand:wikipedia": "en:Lloyds Bank", "contact:website": "https://branches.lloydsbank.com/walthamstow/180-182-high-street", "drive_through": "no", "name": "Lloyds Bank", "operator": "Lloyds Bank", "source": "survey/Lloyds website"}}, {"type": "node", "id": 1724384454, "lat": 51.5838733, "lon": -0.0251595}, {"type": "node", "id": 1724384456, "lat": 51.5839032, "lon": -0.0250456}, {"type": "node", "id": 1724384457, "lat": 51.583916, "lon": -0.0250524, "tags": {"amenity": "atm", "fee": "no", "operator": "Nationwide"}}, {"type": "node", "id": 1724384479, "lat": 51.5840461, "lon": -0.0252682}, {"type": "node", "id": 1724384482, "lat": 51.5840778, "lon": -0.025138}, {"type": "node", "id": 1725917226, "lat": 51.5052455, "lon": -0.1367369}, {"type": "node", "id": 1725917234, "lat": 51.5052927, "lon": -0.1365921}, {"type": "node", "id": 1725917236, "lat": 51.5053128, "lon": -0.1365665}, {"type": "node", "id": 1725917237, "lat": 51.5053132, "lon": -0.1365872}, {"type": "node", "id": 1725917239, "lat": 51.5053132, "lon": -0.1366103}, {"type": "node", "id": 1725917260, "lat": 51.5053174, "lon": -0.1365988}, {"type": "node", "id": 1725917265, "lat": 51.5053189, "lon": -0.1365433}, {"type": "node", "id": 1725917275, "lat": 51.5053318, "lon": -0.1365275}, {"type": "node", "id": 1725917286, "lat": 51.5053432, "lon": -0.1365342}, {"type": "node", "id": 1725917294, "lat": 51.5053589, "lon": -0.1365114}, {"type": "node", "id": 1725917375, "lat": 51.5054847, "lon": -0.1369511}, {"type": "node", "id": 1725917402, "lat": 51.5055813, "lon": -0.1366985}, {"type": "node", "id": 1733593539, "lat": 51.5171615, "lon": -0.107479}, {"type": "node", "id": 1733593540, "lat": 51.5171706, "lon": -0.1075823}, {"type": "node", "id": 1733593541, "lat": 51.5171772, "lon": -0.107666}, {"type": "node", "id": 1733593542, "lat": 51.5171914, "lon": -0.1078272}, {"type": "node", "id": 1733593544, "lat": 51.5172209, "lon": -0.1076561}, {"type": "node", "id": 1733593545, "lat": 51.517223, "lon": -0.1076799}, {"type": "node", "id": 1733593546, "lat": 51.5172261, "lon": -0.1075697}, {"type": "node", "id": 1733593547, "lat": 51.5172283, "lon": -0.1075952}, {"type": "node", "id": 1733593548, "lat": 51.5172652, "lon": -0.1076061}, {"type": "node", "id": 1733593549, "lat": 51.5172708, "lon": -0.1076691}, {"type": "node", "id": 1733593550, "lat": 51.5172928, "lon": -0.1075806}, {"type": "node", "id": 1733593551, "lat": 51.5172945, "lon": -0.1075995}, {"type": "node", "id": 1733593552, "lat": 51.5173138, "lon": -0.1074445}, {"type": "node", "id": 1733593553, "lat": 51.5173409, "lon": -0.107753}, {"type": "node", "id": 1733914438, "lat": 51.5134584, "lon": -0.1119047}, {"type": "node", "id": 1733914520, "lat": 51.513513, "lon": -0.1116236}, {"type": "node", "id": 1733914522, "lat": 51.5135259, "lon": -0.1119388}, {"type": "node", "id": 1733914562, "lat": 51.513573, "lon": -0.1116492}, {"type": "node", "id": 1733914575, "lat": 51.5135875, "lon": -0.111991}, {"type": "node", "id": 1733914617, "lat": 51.5136083, "lon": -0.1107532}, {"type": "node", "id": 1733914635, "lat": 51.5136417, "lon": -0.1116791}, {"type": "node", "id": 1733914653, "lat": 51.5136268, "lon": -0.1106628}, {"type": "node", "id": 1733914665, "lat": 51.5136885, "lon": -0.1105913}, {"type": "node", "id": 1733914680, "lat": 51.5136784, "lon": -0.1107934}, {"type": "node", "id": 1733914691, "lat": 51.5137123, "lon": -0.1108504}, {"type": "node", "id": 1733914721, "lat": 51.5137638, "lon": -0.1108125}, {"type": "node", "id": 1733914729, "lat": 51.5137616, "lon": -0.1108839}, {"type": "node", "id": 1733914730, "lat": 51.5137706, "lon": -0.1108155}, {"type": "node", "id": 1733914732, "lat": 51.5137753, "lon": -0.1098432}, {"type": "node", "id": 1733914733, "lat": 51.51378, "lon": -0.1107017}, {"type": "node", "id": 1733914734, "lat": 51.5137773, "lon": -0.1097376}, {"type": "node", "id": 1733914739, "lat": 51.5137871, "lon": -0.1107041}, {"type": "node", "id": 1733914742, "lat": 51.5137979, "lon": -0.1106344}, {"type": "node", "id": 1733914744, "lat": 51.5137893, "lon": -0.1096759}, {"type": "node", "id": 1733914753, "lat": 51.5137882, "lon": -0.109775}, {"type": "node", "id": 1733914790, "lat": 51.5138064, "lon": -0.1095747}, {"type": "node", "id": 1733914794, "lat": 51.5138205, "lon": -0.1099161}, {"type": "node", "id": 1733914796, "lat": 51.5138415, "lon": -0.1095932}, {"type": "node", "id": 1733914809, "lat": 51.5138827, "lon": -0.1096205}, {"type": "node", "id": 1733914816, "lat": 51.5139276, "lon": -0.1099752}, {"type": "node", "id": 1733914828, "lat": 51.5139873, "lon": -0.1096693}, {"type": "node", "id": 1735809468, "lat": 51.3737671, "lon": -0.1006087}, {"type": "node", "id": 1735809469, "lat": 51.3737803, "lon": -0.1005663}, {"type": "node", "id": 1735809470, "lat": 51.3737993, "lon": -0.1005411}, {"type": "node", "id": 1735809472, "lat": 51.3738192, "lon": -0.1005305}, {"type": "node", "id": 1735809473, "lat": 51.373844, "lon": -0.1005252}, {"type": "node", "id": 1735809580, "lat": 51.3767146, "lon": -0.1019212}, {"type": "node", "id": 1735809588, "lat": 51.3772463, "lon": -0.1022654}, {"type": "node", "id": 1735809589, "lat": 51.3772532, "lon": -0.1022327}, {"type": "node", "id": 1740881634, "lat": 51.3771112, "lon": -0.1014621}, {"type": "node", "id": 1754257130, "lat": 51.4633818, "lon": -0.1685189}, {"type": "node", "id": 1759071591, "lat": 51.5023581, "lon": -0.1543739, "tags": {"amenity": "bank", "brand": "ICICI Bank", "brand:wikidata": "Q1653258", "brand:wikipedia": "en:ICICI Bank", "name": "ICICI Bank", "short_name": "ICICI", "source": "survey"}}, {"type": "node", "id": 1763600535, "lat": 51.5184506, "lon": -0.0854749, "tags": {"addr:city": "London", "addr:housenumber": "26-27", "addr:postcode": "EC2M 7LA", "addr:street": "Eldon Street", "amenity": "bank", "brand": "Nationwide", "brand:wikidata": "Q846735", "brand:wikipedia": "en:Nationwide Building Society", "check_date": "2024-09-02", "check_date:opening_hours": "2024-09-02", "name": "Nationwide", "opening_hours": "Mo closed; Tu 09:00-16:30; We 10:00-16:30; Th 09:00-16:30; Fr-Su closed", "phone": "+44 345 266 0216", "website": "https://www.nationwide.co.uk/branches/london/26-27-eldon-street", "wheelchair": "yes"}}, {"type": "node", "id": 1763603998, "lat": 51.5414428, "lon": 0.0019356, "tags": {"addr:city": "London", "addr:country": "GB", "addr:full": "60 Broadway, London, E15 1NG", "addr:housenumber": "60", "addr:postcode": "E15 1NG", "addr:street": "Broadway", "amenity": "bank", "atm": "yes", "brand": "Lloyds Bank", "brand:wikidata": "Q1152847", "brand:wikipedia": "en:Lloyds Bank", "contact:website": "https://branches.lloydsbank.com/stratford/60-the-broadway", "name": "Lloyds Bank", "old_name": "Lloyds TSB", "opening_hours": "Mo-Fr 09:00-17:00; Th 09:00-19:00; Sa 09:00-18:00", "wheelchair": "yes"}}, {"type": "node", "id": 1767457195, "lat": 51.3745953, "lon": -0.0947132, "tags": {"addr:city": "Croydon", "addr:housenumber": "91", "addr:postcode": "CR0 1LD", "addr:street": "George Street", "amenity": "bank", "atm": "yes", "brand": "The Co-operative Bank", "brand:wikidata": "Q3520318", "brand:wikipedia": "en:The Co-operative Bank", "name": "The Co-operative Bank", "wheelchair": "yes"}}, {"type": "node", "id": 1768843678, "lat": 51.5627338, "lon": 0.217608, "tags": {"amenity": "bank", "atm": "yes", "brand:wikidata": "Q3310164", "name": "Halifax"}}, {"type": "node", "id": 1778832184, "lat": 51.5136735, "lon": -0.0841682}, {"type": "node", "id": 1778844037, "lat": 51.5133291, "lon": -0.0855394}, {"type": "node", "id": 1778844039, "lat": 51.5133132, "lon": -0.0855582}, {"type": "node", "id": 1778844040, "lat": 51.5133357, "lon": -0.0852968}, {"type": "node", "id": 1778844041, "lat": 51.5132706, "lon": -0.0855617}, {"type": "node", "id": 1787108638, "lat": 51.5155544, "lon": -0.0845674}, {"type": "node", "id": 1787108639, "lat": 51.5156042, "lon": -0.0847425}, {"type": "node", "id": 1787108640, "lat": 51.5156155, "lon": -0.0843498}, {"type": "node", "id": 1787108641, "lat": 51.5156433, "lon": -0.0844981}, {"type": "node", "id": 1787108643, "lat": 51.5156806, "lon": -0.0846896}, {"type": "node", "id": 1794934697, "lat": 51.4937839, "lon": -0.1460809, "tags": {"amenity": "bank", "name": "Banif Bank"}}, {"type": "node", "id": 1798783062, "lat": 51.5712764, "lon": -0.1955331, "tags": {"addr:city": "London", "addr:housenumber": "883/885", "addr:postcode": "NW11 8RU", "addr:street": "Finchley Road", "amenity": "bank", "atm": "yes", "brand": "Barclays", "brand:wikidata": "Q245343", "brand:wikipedia": "en:Barclays", "name": "Barclays", "operator": "Barclays Bank PLC"}}, {"type": "node", "id": 1798783065, "lat": 51.5720757, "lon": -0.196146, "tags": {"addr:country": "GB", "amenity": "bank", "atm": "yes", "brand": "Lloyds Bank", "brand:wikidata": "Q1152847", "brand:wikipedia": "en:Lloyds Bank", "contact:website": "https://branches.lloydsbank.com/london/8-golders-green-road", "name": "Lloyds Bank"}}, {"type": "node", "id": 1798785409, "lat": 51.5718238, "lon": -0.1964583, "tags": {"amenity": "bank", "atm": "yes", "brand": "NatWest", "brand:wikidata": "Q2740021", "name": "NatWest", "website": "https://www.natwest.com/search-results/locator/branch.html?sortcode=600905&name=Golders%20Green", "wheelchair": "yes"}}, {"type": "node", "id": 1798785413, "lat": 51.5720318, "lon": -0.1959359, "tags": {"amenity": "bank", "brand": "Virgin Money", "brand:wikidata": "Q2527746", "name": "Virgin Money"}}, {"type": "node", "id": 1816959347, "lat": 51.5157988, "lon": -0.100046}, {"type": "node", "id": 1816959377, "lat": 51.5160373, "lon": -0.0992026}, {"type": "node", "id": 1816959382, "lat": 51.5160639, "lon": -0.10002}, {"type": "node", "id": 1816959390, "lat": 51.5161627, "lon": -0.1008518}, {"type": "node", "id": 1816959393, "lat": 51.516181, "lon": -0.1010327}, {"type": "node", "id": 1816959396, "lat": 51.5161961, "lon": -0.1010222}, {"type": "node", "id": 1816959402, "lat": 51.5162233, "lon": -0.1011702}, {"type": "node", "id": 1816959407, "lat": 51.516233, "lon": -0.1009954}, {"type": "node", "id": 1816959408, "lat": 51.5162355, "lon": -0.1011619}, {"type": "node", "id": 1816959433, "lat": 51.5162723, "lon": -0.1011351},